"","Country","Region","latitude","longitude","population","city","Country_name"
"1","ad","02",42.5666667,1.6,3292,"canillo","Andorra"
"2","ad","03",42.5333333,1.5833333,11224,"encamp","Andorra"
"3","ad","04",42.55,1.5166667,7211,"la massana","Andorra"
"4","ad","05",42.55,1.5333333,2553,"ordino","Andorra"
"5","ad","06",42.4666667,1.5,8020,"sant julia de loria","Andorra"
"6","ad","07",42.5,1.5166667,20430,"andorra la vella","Andorra"
"7","ad","08",42.5,1.5333333,15854,"les escaldes","Andorra"
"8","ae","01",24.466667,54.366667,603687,"abu dhabi","United Arab Emirates"
"9","ae","03",25.258172,55.304717,1137376,"dubai","United Arab Emirates"
"10","ae","06",25.35731,55.403304,543942,"sharjah","United Arab Emirates"
"11","af","03",35.943024,69.0339703333333,157904,"baglan","Afghanistan"
"12","af","08",33.550833,68.4225,143049,"gazni","Afghanistan"
"13","af","11",34.0389914,61.7532016,338171,"herat","Afghanistan"
"14","af","13",34.5326426666667,69.13698,3123018,"kabul","Afghanistan"
"15","af","18",34.2544745,70.559841,215487,"jalalabad","Afghanistan"
"16","af","23",31.613323,65.710126,391230,"qandahar","Afghanistan"
"17","af","24",36.728955,68.857001,161943,"qunduz","Afghanistan"
"18","af","26",37.0859673333333,69.7262176666667,113343,"taloqan","Afghanistan"
"19","af","36",33.597439,69.225922,103732,"gardez","Afghanistan"
"20","af","37",33.339512,69.92041,96246,"khowst","Afghanistan"
"21","ag","01",17.6333333,-61.8333333,682,"codrington","Antigua & Barbuda"
"22","ag","03",17.1333333,-61.8,831,"carlisle","Antigua & Barbuda"
"23","ag","05",17.0166667,-61.8333333,623,"old road","Antigua & Barbuda"
"24","ag","06",17.0444444333333,-61.7944444333333,4921,"all saints","Antigua & Barbuda"
"25","ag","07",17.0833333,-61.7666667,969,"parham","Antigua & Barbuda"
"26","ag","08",17.05,-61.7,623,"freetown","Antigua & Barbuda"
"27","ai","00",18.2166667,-63.05,1379,"the valley","Anguilla"
"28","al","40",40.655625,20.048541675,90481,"berat","Albania"
"29","al","42",41.4140278,19.629791675,167916,"durres","Albania"
"30","al","43",41.0520833333333,20.14291665,150947,"elbasan","Albania"
"31","al","44",40.7371111,19.66349998,140839,"fier","Albania"
"32","al","45",40.2158796166667,20.1568981666667,57166,"gjirokaster","Albania"
"33","al","46",40.5572685166667,20.7331944333333,105411,"korce","Albania"
"34","al","48",41.726527775,19.7640625,70482,"lac","Albania"
"35","al","49",42.12966666,19.77655556,102855,"shkoder","Albania"
"36","al","50",41.2629166833333,19.7379629666667,426951,"tirana","Albania"
"37","al","51",40.1299603428571,19.8037301571429,124052,"vlore","Albania"
"38","am","01",40.349833332,44.212433348,85026,"ashtarak","Armenia"
"39","am","02",40.0021867638298,44.5335047297872,148458,"artashat","Armenia"
"40","am","03",40.1182575772727,44.146117425,154644,"vagharshapat","Armenia"
"41","am","04",40.3474410787879,45.2304040393939,146871,"gavar","Armenia"
"42","am","05",40.3467870333333,44.62226852,152991,"hrazdan","Armenia"
"43","am","06",40.9320424941176,44.4549101294118,194125,"vanadzor","Armenia"
"44","am","07",40.717477776,43.885844436,196935,"gyumri","Armenia"
"45","am","08",39.4130769230769,46.2809829076923,92861,"kapan","Armenia"
"46","am","09",40.974847225,45.12654167,74532,"ijevan","Armenia"
"47","am","11",40.16868055,44.687777775,1100240,"yerevan","Armenia"
"48","an","00",13.7357142785714,-67.1821428571428,117588,"willemstad",NA
"49","ao","01",-12.443148,13.5180553333333,376172,"lobito","Angola"
"50","ao","02",-12.17916675,17.258333,159309,"kuito","Angola"
"51","ao","03",-5.55,12.2,66020,"cabinda","Angola"
"52","ao","08",-12.8450926666667,15.5176853333333,271732,"huambo","Angola"
"53","ao","09",-14.1444443333333,14.4166666666667,143397,"lubango","Angola"
"54","ao","12",-9.544722,16.345278,87047,"malanje","Angola"
"55","ao","13",-15.196111,12.152222,80150,"namibe","Angola"
"56","ao","15",-7.613282,15.056621,60008,"uige","Angola"
"57","ao","16",-6.134903,12.368935,67553,"soyo","Angola"
"58","ao","20",-8.836804,13.233174,2776125,"luanda","Angola"
"59","ar","01",-35.749392375,-59.8022070833333,2967916,"la plata","Argentina"
"60","ar","03",-27.1228905,-59.7113235,496551,"resistencia","Argentina"
"61","ar","05",-32.031953625,-63.697826125,1968828,"cordoba","Argentina"
"62","ar","06",-28.48388625,-58.73573625,539097,"corrientes","Argentina"
"63","ar","08",-32.3963735,-59.1271155,674324,"parana","Argentina"
"64","ar","13",-33.3631146,-68.5928016,1348900,"mendoza","Argentina"
"65","ar","17",-23.478747,-64.512541,696392,"salta","Argentina"
"66","ar","18",-31.5375,-68.536389,469958,"san juan","Argentina"
"67","ar","21",-31.9916626666667,-60.7959321666667,1970617,"rosario","Argentina"
"68","ar","24",-26.824144,-65.2226,828402,"tucuman","Argentina"
"69","at","01",47.58614575,16.39541675,46528,"eisenstadt","Austria"
"70","at","02",46.6884596818182,14.1461615454545,331155,"klagenfurt","Austria"
"71","at","03",48.2256274655172,15.9889655,627301,"sankt polten","Austria"
"72","at","04",48.109302372093,13.9503875581395,619916,"linz","Austria"
"73","at","05",47.5382352941176,13.1196077647059,279187,"salzburg","Austria"
"74","at","06",47.2622222666667,15.0789629,472934,"graz","Austria"
"75","at","07",47.322367,11.6649154347826,286968,"innsbruck","Austria"
"76","at","08",47.3507604736842,9.71307036842105,241953,"dornbirn","Austria"
"77","at","09",48.2,16.366667,1569315,"vienna","Austria"
"78","au","01",-35.27603,149.13435,324025,"canberra","Australia"
"79","au","02",-32.7034624821429,150.24238,6056596,"sydney","Australia"
"80","au","03",-14.429712,133.031775866667,181403,"darwin","Australia"
"81","au","04",-24.2524267674419,150.452328023256,3406361,"brisbane","Australia"
"82","au","05",-34.4859837272727,138.029965363636,1211567,"adelaide","Australia"
"83","au","06",-41.7492943333333,146.660568333333,331750,"hobart","Australia"
"84","au","07",-37.5284991052632,144.727673184211,4517885,"melbourne","Australia"
"85","au","08",-28.2386365882353,117.559179,1728328,"perth","Australia"
"86","aw","00",12.5166667,-70.0333333,29998,"oranjestad","Aruba"
"87","az","01",40.46305525,49.69277775,25696,"saray","Azerbaijan"
"88","az","03",39.99096,46.927356,39451,"agdam","Azerbaijan"
"89","az","09",40.40122075,49.9247520833333,1504051,"baku","Azerbaijan"
"90","az","22",40.653056,47.740556,35348,"goycay","Azerbaijan"
"91","az","24",39.871307,48.064094,31381,"imisli","Azerbaijan"
"92","az","46",40.009458,48.475154,28076,"sabirabad","Azerbaijan"
"93","az","49",39.7033965,48.9664275,40766,"salyan","Azerbaijan"
"94","az","58",40.9671795,45.68053,25445,"qovlar","Azerbaijan"
"95","az","60",41.5780603333333,48.7171526666667,51005,"xacmaz","Azerbaijan"
"96","az","68",40.612732,47.142329,53715,"yevlax","Azerbaijan"
"97","ba","01",44.2853601489655,17.6161187772414,2150880,"sarajevo","Bosnia & Herzegovina"
"98","ba","02",44.497031246875,17.9781727421875,710401,"banja luka","Bosnia & Herzegovina"
"99","ba","BD",44.8727778,18.8083333,38478,"brcko","Bosnia & Herzegovina"
"100","bb","01",13.0666667,-59.5333333,2285,"oistins","Barbados"
"101","bb","02",13.23333335,-59.575,1142,"greenland","Barbados"
"102","bb","04",13.1833333,-59.65,1350,"holetown","Barbados"
"103","bb","06",13.2,-59.525,2388,"bathsheba","Barbados"
"104","bb","07",13.3166667,-59.6333333,727,"crab hill","Barbados"
"105","bb","08",13.1,-59.6166667,98511,"bridgetown","Barbados"
"106","bb","09",13.25,-59.65,3634,"speightstown","Barbados"
"107","bd","80",22.87453125625,91.317291675,788991,"chandpur","Bangladesh"
"108","bd","81",24.0390404060606,90.0697558909091,10094957,"dhaka","Bangladesh"
"109","bd","82",22.9547619285714,89.3000000142857,1670538,"khulna","Bangladesh"
"110","bd","83",25.5986111083333,88.823611125,1092697,"rangpur","Bangladesh"
"111","bd","84",22.4928571428571,90.0404761857143,501681,"barisal","Bangladesh"
"112","bd","85",22.520625,91.421458325,268609,"feni","Bangladesh"
"113","bd","86",24.69666666,91.52666668,299744,"habiganj","Bangladesh"
"114","be","01",51.1884803970588,4.64411766176471,1634222,"antwerp","Belgium"
"115","be","02",50.8245726410256,4.53311965384615,1108649,"dilbeek","Belgium"
"116","be","03",50.4874213396226,3.96383645283019,1131869,"charleroi","Belgium"
"117","be","04",50.5802222266667,5.59444449333333,935468,"liege","Belgium"
"118","be","05",50.9587963055556,5.40462966666667,679283,"hasselt","Belgium"
"119","be","06",49.9217763953488,5.51534234883721,246198,"arlon","Belgium"
"120","be","07",50.2956989032258,4.88387096774194,368684,"namur","Belgium"
"121","be","08",51.0397661052632,3.82339178947368,1309516,"gent","Belgium"
"122","be","09",51.0104519661017,3.11158193220339,1111798,"brugge","Belgium"
"123","be","11",50.833333,4.333333,1019022,"brussels","Belgium"
"124","bf","18",11.8,-0.5505556,29076,"garango","Burkina Faso"
"125","bf","19",12.2275,-2.014444475,127683,"koudougou","Burkina Faso"
"126","bf","49",11.78,-0.3697222,37123,"tenkodogo","Burkina Faso"
"127","bf","51",11.2,-4.3,370809,"bobo dioulasso","Burkina Faso"
"128","bf","53",12.3702778,-1.5247222,1031330,"ouagadougou","Burkina Faso"
"129","bf","55",10.6333333,-4.7666667,63883,"banfora","Burkina Faso"
"130","bf","59",11.5033333,0.0572222,30726,"ouargaye","Burkina Faso"
"131","bf","63",12.4666667,-3.4666667,47235,"dedougou","Burkina Faso"
"132","bf","70",13.0916667,-1.0844444,39130,"kaya","Burkina Faso"
"133","bf","76",13.5833333,-2.4166667,61439,"ouahigouya","Burkina Faso"
"134","bg","38",41.8124382666667,23.3447222333333,166840,"blagoevgrad","Bulgaria"
"135","bg","39",42.47493056875,27.4121354125,286909,"burgas","Bulgaria"
"136","bg","42",42.7375,23.341666675,1086432,"sofia","Bulgaria"
"137","bg","43",42.0627525181818,25.8381312909091,191228,"haskovo","Bulgaria"
"138","bg","48",42.16333334,24.19166667,173004,"pazardzik","Bulgaria"
"139","bg","50",43.5020833375,24.7854166625,177183,"pleven","Bulgaria"
"140","bg","51",42.259722225,24.7680555583333,455930,"plovdiv","Bulgaria"
"141","bg","53",43.62127778,25.9275,171188,"ruse","Bulgaria"
"142","bg","59",42.4213492142857,25.6440872857143,234353,"stara zagora","Bulgaria"
"143","bg","61",43.2851851777778,27.6,357467,"varna","Bulgaria"
"144","bh","02",26.2361111,50.5830556,147097,"manama","Bahrain"
"145","bh","06",26.1547222,50.6205556,37690,"sitrah","Bahrain"
"146","bi","02",-3.3761111,29.36,330539,"bujumbura","Burundi"
"147","bi","05",-3.39722225,29.65972225,22963,"muramvya","Burundi"
"148","bi","10",-3.96166665,29.5277778,25814,"bururi","Burundi"
"149","bi","13",-3.425,29.9333333,23168,"gitega","Burundi"
"150","bi","15",-2.9222222,29.6222222,19443,"kayanza","Burundi"
"151","bi","17",-4.1347222,29.805,19642,"makamba","Burundi"
"152","bi","18",-2.8494444,30.3361111,71095,"muyinga","Burundi"
"153","bi","19",-2.9083333,29.8277778,21506,"ngozi","Burundi"
"154","bi","20",-3.9191667,29.9936111,20894,"rutana","Burundi"
"155","bi","21",-3.4763889,30.2486111,38459,"ruyigi","Burundi"
"156","bj","03",10.2345833333333,2.75925925,171698,"nikki","Benin"
"157","bj","05",6.45,2.35,385823,"abomey-calavi","Benin"
"158","bj","07",11.1341667,2.9386111,109705,"kandi","Benin"
"159","bj","09",6.3666667,2.0833333,83506,"ouidah","Benin"
"160","bj","10",9.35,2.6166667,163759,"parakou","Benin"
"161","bj","11",7.9833333,2.225,106160,"save","Benin"
"162","bj","13",9.705,1.6669444,202834,"djougou","Benin"
"163","bj","14",6.35,2.4333333,690584,"cotonou","Benin"
"164","bj","15",6.6083333,1.6916667,100572,"lokossa","Benin"
"165","bj","18",7.245833325,2.2375,268181,"bohicon","Benin"
"166","bm","03",32.2941667,-64.7838889,902,"hamilton","Bermuda"
"167","bm","06",32.3816667,-64.6780556,1802,"saint george","Bermuda"
"168","bo","01",-19.5952778,-64.73516668,243199,"sucre","Bolivia"
"169","bo","02",-17.5861111166667,-65.8388888916667,968349,"cochabamba","Bolivia"
"170","bo","03",-13.4583333375,-66.2229166625,241908,"trinidad","Bolivia"
"171","bo","04",-16.4107843117647,-67.8823529411765,885506,"la paz","Bolivia"
"172","bo","05",-18.2642857285714,-66.9714285857143,242313,"oruro","Bolivia"
"173","bo","06",-11.0333333,-68.7333333,26583,"cobija","Bolivia"
"174","bo","07",-20.05341668,-66.09063889,248068,"potosi","Bolivia"
"175","bo","08",-17.6158536536585,-62.3239837414634,418905,"montero","Bolivia"
"176","bo","09",-21.7361111,-64.2138888833333,294738,"tarija","Bolivia"
"177","br","05",-12.95093176,-40.1710079485714,8030468,"salvador","Brazil"
"178","br","06",-4.80831575789474,-39.5045204736842,5458335,"fortaleza","Brazil"
"179","br","15",-19.57462692,-44.383950784,13922815,"belo horizonte","Brazil"
"180","br","16",-2.10790568253968,-49.8673897619048,3746478,"belem","Brazil"
"181","br","18",-24.4029363421053,-51.4311931052632,7091428,"curitiba","Brazil"
"182","br","21",-22.4031099,-42.9723214142857,14380851,"rio de janeiro","Brazil"
"183","br","23",-29.4934283529412,-52.4465322016807,7871033,"porto alegre","Brazil"
"184","br","26",-27.3133132028986,-49.8114439855072,4037611,"joinville","Brazil"
"185","br","27",-22.4683490263158,-48.1012357039474,35425920,"sao paulo","Brazil"
"186","br","30",-8.2320755,-36.4240566226415,5978389,"recife","Brazil"
"187","bs","05",25.7166667,-79.3,950,"alice town","Bahamas"
"188","bs","15",23.1,-74.9833333,1751,"clarence town","Bahamas"
"189","bs","22",25.5,-76.65,1523,"dunmore town","Bahamas"
"190","bs","23",25.0833333,-77.35,227936,"nassau","Bahamas"
"191","bs","25",26.5333333,-78.7,46535,"freeport","Bahamas"
"192","bs","26",24.7,-77.7666667,2456,"andros town","Bahamas"
"193","bs","29",26.6208333,-78.2833333,3744,"high rock","Bahamas"
"194","bs","31",26.55,-77.05,5314,"marsh harbour","Bahamas"
"195","bs","33",24.9,-76.2,1396,"rock sound","Bahamas"
"196","bs","35",23.8333333,-74.675,922,"cockburn town","Bahamas"
"197","bt","05",27.55,90.7333333,4829,"jakar","Bhutan"
"198","bt","06",26.95833335,89.4833333,67095,"phuntsholing","Bhutan"
"199","bt","08",27.0666667,89.8833333,3168,"taga dzong","Bhutan"
"200","bt","09",26.85,90.5,7464,"geylegphug","Bhutan"
"201","bt","13",27.4333333,89.4166667,4536,"paro","Bhutan"
"202","bt","15",27.7666667,89.775,19782,"punakha","Bhutan"
"203","bt","17",26.8166667,91.5666667,14134,"samdrup jongkhar","Bhutan"
"204","bt","19",27.3166667,91.5666667,4519,"tashigang","Bhutan"
"205","bt","21",27.5166667,90.5,2365,"tongsa","Bhutan"
"206","bt","22",27.4833333,89.9,3393,"wangdiphodrang","Bhutan"
"207","bw","00",-21.8870370333333,23.5407407333333,39168,"orapa","Botswana"
"208","bw","01",-22.5966666666667,27.07444444,161934,"serowe","Botswana"
"209","bw","03",-22.1666666666667,21.8111111,16522,"ghanzi","Botswana"
"210","bw","04",-26.0722222333333,22.1444444333333,11022,"tsabong","Botswana"
"211","bw","05",-24.0611111333333,26.0277777666667,43933,"mochudi","Botswana"
"212","bw","06",-24.3399074111111,25.5754629555556,155688,"molepolole","Botswana"
"213","bw","08",-21.3875000083333,27.7194444416667,146235,"francistown","Botswana"
"214","bw","09",-24.6518650857143,26.0112301428571,278534,"gaborone","Botswana"
"215","bw","10",-24.56333332,24.40333332,68623,"kanye","Botswana"
"216","bw","11",-19.46458335,23.97708335,70819,"maun","Botswana"
"217","by","01",52.0624603142857,24.9488492,526902,"brest","Belarus"
"218","by","02",52.4612963,30.0926852,666225,"gomel","Belarus"
"219","by","03",53.4685185166667,24.8763425833333,560987,"hrodna","Belarus"
"220","by","04",54.09166665,29.2788889,1776020,"minsk","Belarus"
"221","by","06",53.08756945,27.3292361,145972,"salihorsk","Belarus"
"222","by","07",55.1827778,28.7023611166667,184048,"orsha","Belarus"
"223","bz","01",17.7,-88.06666665,69880,"belize","Belize"
"224","bz","02",17.1603703666667,-88.9924074333333,37286,"san ignacio","Belize"
"225","bz","03",18.3833333,-88.3833333,8724,"corozal","Belize"
"226","bz","04",18.0666667,-88.55,15298,"orange walk","Belize"
"227","bz","05",16.9666667,-88.2166667,10750,"dangriga","Belize"
"228","bz","06",16.1,-88.8,5026,"punta gorda","Belize"
"229","ca","01",52.6728611,-113.970885788889,2524855,"calgary","Canada"
"230","ca","02",50.7120444666667,-121.577022226667,3306650,"vancouver","Canada"
"231","ca","03",50.4048386774194,-98.8553763548387,772672,"winnipeg","Canada"
"232","ca","04",46.5462121363636,-66.4,332715,"saint john","Canada"
"233","ca","05",48.4416665909091,-55.4196969545455,100761,"corner brook","Canada"
"234","ca","07",45.2199999666667,-63.3594445,471284,"halifax","Canada"
"235","ca","08",44.6984360094787,-80.2821010663507,10079025,"toronto","Canada"
"236","ca","09",46.3747618571429,-63.2490475714286,65343,"charlottetown","Canada"
"237","ca","10",46.9656565393939,-71.6891919212121,5321098,"montreal","Canada"
"238","ca","11",51.4258284285714,-105.462822464286,622467,"saskatoon","Canada"
"239","cd","00",-0.0142857857142857,24.7630952142857,692914,"isiro","Congo - Kinshasa"
"240","cd","01",-3.350659875,17.925173625,532445,"kikwit","Congo - Kinshasa"
"241","cd","02",2.09583325,20.3083335,545212,"mbandaka","Congo - Kinshasa"
"242","cd","03",-5.811145875,22.289722375,1074377,"kananga","Congo - Kinshasa"
"243","cd","04",-6.34444433333333,24.011111,1088387,"mbuji-mayi","Congo - Kinshasa"
"244","cd","05",-8.8113056,26.6170833,2247390,"lubumbashi","Congo - Kinshasa"
"245","cd","06",-4.3,15.3,7787832,"kinshasa","Congo - Kinshasa"
"246","cd","08",-5.492963,14.38125,697850,"boma","Congo - Kinshasa"
"247","cd","09",1.025,25.87916675,715156,"kisangani","Congo - Kinshasa"
"248","cd","12",-2.79444433333333,28.943611,432884,"bukavu","Congo - Kinshasa"
"249","cf","04",4.44444443333333,15.6,151752,"carnot","Central African Republic"
"250","cf","07",4.1,17.73333335,96971,"mbaiki","Central African Republic"
"251","cf","08",4.6625,22.887500025,63197,"bangassou","Central African Republic"
"252","cf","09",5.80555556666667,15.4611111333333,73002,"bouar","Central African Republic"
"253","cf","11",5.39087961666667,20.8362037,147710,"bambari","Central African Republic"
"254","cf","12",6.49166665,17.86666665,58990,"bossangoa","Central African Republic"
"255","cf","13",6.85,16.1555555333333,82145,"bozoum","Central African Republic"
"256","cf","16",3.5333333,16.0666667,53270,"nola","Central African Republic"
"257","cf","17",4.59333334,18.32333334,99782,"bimbo","Central African Republic"
"258","cf","18",4.3666667,18.5833333,684190,"bangui","Central African Republic"
"259","cg","01",-4.15958335,13.4213889,93705,"nkayi","Congo - Brazzaville"
"260","cg","04",-4.7561111,11.8577778,26387,"loandjili","Congo - Brazzaville"
"261","cg","05",-3.6858333,13.3458333,19089,"sibiti","Congo - Brazzaville"
"262","cg","06",1.6380556,18.0666667,20859,"impfondo","Congo - Brazzaville"
"263","cg","07",-3.02203703333333,12.6893518666667,95871,"loubomo","Congo - Brazzaville"
"264","cg","08",-2.21055555,15.30888885,30527,"gamboma","Congo - Brazzaville"
"265","cg","10",1.63083335,15.31611115,19205,"ouesso","Congo - Brazzaville"
"266","cg","11",-4.3613889,14.7644444,13882,"kinkala","Congo - Brazzaville"
"267","cg","12",-4.2591667,15.2847222,1115773,"brazzaville","Congo - Brazzaville"
"268","cg","13",-0.4869444,15.9080556,16590,"owando","Congo - Brazzaville"
"269","ch","01",47.3615637804878,8.09630543902439,352321,"wettingen","Switzerland"
"270","ch","04",47.5067337692308,7.57752207692308,282063,"basel","Switzerland"
"271","ch","05",46.9049374814815,7.53008118518519,448192,"bern","Switzerland"
"272","ch","07",46.2281440666667,6.15062573333333,373469,"geneva","Switzerland"
"273","ch","11",47.0669953571429,8.28806342857143,206525,"luzern","Switzerland"
"274","ch","17",47.2009718571429,8.78653714285714,214220,"wadenswil","Switzerland"
"275","ch","20",46.0863571538462,8.92191592307692,123425,"lugano","Switzerland"
"276","ch","22",46.2350846923077,7.42221615384615,123191,"sion","Switzerland"
"277","ch","23",46.4962155909091,6.73408681818182,350086,"lausanne","Switzerland"
"278","ch","25",47.3680804736842,8.60203565789474,857461,"zurich","Switzerland"
"279","ci","74",6.184884,-3.9787665,278645,"agboville","Côte d’Ivoire"
"280","ci","76",4.976306,-6.6665785,370722,"san-pedro","Côte d’Ivoire"
"281","ci","78",7.3558745,-7.702245,269372,"man","Côte d’Ivoire"
"282","ci","80",6.91718,-6.504525,360376,"daloa","Côte d’Ivoire"
"283","ci","81",6.9907525,-5.071155,288618,"yamoussoukro","Côte d’Ivoire"
"284","ci","82",5.46954311111111,-4.17605211111111,4173476,"abidjan","Côte d’Ivoire"
"285","ci","83",7.01390133333333,-5.90206233333333,227849,"bouafle","Côte d’Ivoire"
"286","ci","87",9.763412,-5.9294945,376824,"korhogo","Côte d’Ivoire"
"287","ci","88",5.752304,-5.339456,278569,"divo","Côte d’Ivoire"
"288","ci","90",7.862566,-5.12399933333333,735267,"bouake","Côte d’Ivoire"
"289","ck","00",-14.07033334,-160.90011112,13982,"avarua","Cook Islands"
"290","cl","01",-32.8989101538462,-71.2306836923077,1213440,"vina del mar","Chile"
"291","cl","03",-23.40216175,-70.0036465,487399,"antofagasta","Chile"
"292","cl","04",-38.6964285714286,-72.5738094285714,484948,"temuco","Chile"
"293","cl","06",-37.070635,-72.7738095714286,1300977,"talcahuano","Chile"
"294","cl","07",-30.655595,-71.0843255714286,456503,"coquimbo","Chile"
"295","cl","08",-34.3720232857143,-70.9301581428571,374905,"rancagua","Chile"
"296","cl","11",-35.5287879090909,-71.6803029090909,543681,"talca","Chile"
"297","cl","12",-33.6166666666667,-70.8740742222222,5408006,"santiago","Chile"
"298","cl","14",-41.4819981428571,-73.2860995714286,404842,"puerto montt","Chile"
"299","cl","15",-20.22083,-70.14306,227501,"iquique","Chile"
"300","cm","04",4.60476188571429,14.0523809428571,354381,"bertoua","Cameroon"
"301","cm","05",4.46691357777778,9.84040123333333,1931311,"douala","Cameroon"
"302","cm","07",6.14629627777778,10.2000000111111,676642,"bamenda","Cameroon"
"303","cm","08",5.40925926666667,10.3481481555556,871150,"bafoussam","Cameroon"
"304","cm","09",4.21984125714286,9.28313494285714,433832,"kumba","Cameroon"
"305","cm","10",6.88333336,12.99666666,392731,"ngaoundere","Cameroon"
"306","cm","11",4.17638890833333,11.5861111083333,1628305,"yaounde","Cameroon"
"307","cm","12",10.7559375125,14.5056597125,1220397,"kousseri","Cameroon"
"308","cm","13",8.97236111666667,13.7803240666667,586904,"garoua","Cameroon"
"309","cm","14",2.87857141428571,11.0214285714286,240406,"ebolowa","Cameroon"
"310","cn","04",32.7522547234043,119.682750170213,14484129,"nanjing","China"
"311","cn","05",43.5127261086957,126.380465891304,8828427,"changchun","China"
"312","cn","08",46.537396,127.817831407895,13375174,"harbin","China"
"313","cn","09",34.0501767837838,113.87817427027,11108211,"xinyang","China"
"314","cn","10",38.4864300740741,116.057633740741,10913808,"tangshan","China"
"315","cn","12",30.7900983913043,113.178530391304,10826097,"wuhan","China"
"316","cn","19",41.0379619268293,122.582284609756,15995193,"shenyang","China"
"317","cn","23",31.045556,121.399722,14608512,"shanghai","China"
"318","cn","25",36.1911342987013,118.289820766234,14219787,"jinan","China"
"319","cn","30",22.8268910526316,113.246614140351,15420712,"guangzhou","China"
"320","co","02",6.55770137815126,-75.5700443613445,4193054,"medellin","Colombia"
"321","co","04",10.6956276086957,-74.8993676521739,2217057,"barranquilla","Colombia"
"322","co","21",7.84894694594595,-72.782293,1122137,"cucuta","Colombia"
"323","co","26",6.56292318823529,-73.2473578588235,1493748,"bucaramanga","Colombia"
"324","co","28",4.35582477777778,-75.0515242666667,838807,"ibague","Colombia"
"325","co","29",4.10631447619048,-76.2223114761905,3929775,"cali","Colombia"
"326","co","33",4.83665957264957,-74.1281403589744,1351574,"soacha","Colombia"
"327","co","34",4.649178,-74.062827,7102602,"bogota","Colombia"
"328","co","35",9.43040543902439,-74.7222889756098,1527061,"cartagena","Colombia"
"329","co","38",10.0386298,-74.4874654333333,969127,"santa marta","Colombia"
"330","cr","01",10.2661379473684,-84.4473403684211,213001,"alajuela","Costa Rica"
"331","cr","02",9.8620031,-83.8865396,172438,"paraiso","Costa Rica"
"332","cr","03",10.47816125,-85.2977605,113777,"liberia","Costa Rica"
"333","cr","04",10.01214,-84.1121016,217449,"san francisco","Costa Rica"
"334","cr","06",10.144175875,-83.483003125,132618,"limon","Costa Rica"
"335","cr","07",9.37528130769231,-83.9603980769231,145418,"puntarenas","Costa Rica"
"336","cr","08",9.85224586206897,-84.0774712413793,901056,"san jose","Costa Rica"
"337","cu","01",22.52844445,-83.51313889,410328,"pinar del rio","Cuba"
"338","cu","03",22.78614583125,-81.16887151875,582682,"matanzas","Cuba"
"339","cu","05",21.3384259111111,-77.7954629555556,626264,"camaguey","Cuba"
"340","cu","09",20.2887654444444,-76.9879938222222,493586,"bayamo","Cuba"
"341","cu","10",21.1576851666667,-76.7635185333333,373073,"guantanamo","Cuba"
"342","cu","11",22.90493055625,-82.364027775,544949,"guira de melena","Cuba"
"343","cu","12",20.8016049333333,-75.8041975333333,654129,"holguin","Cuba"
"344","cu","14",22.0070486,-79.5328125125,360568,"sancti spiritus","Cuba"
"345","cu","15",20.13766666,-75.95127776,801213,"santiago de cuba","Cuba"
"346","cu","16",22.5094791625,-79.9172916625,718116,"santa clara","Cuba"
"347","cv","00",16.9138888833333,-24.5638889,102935,"mindelo","Cape Verde"
"348","cv","17",15.2527777666667,-23.6027778,138899,"praia","Cape Verde"
"349","cy","01",35.30416666,34.06833334,65669,"gazimagusa","Cyprus"
"350","cy","02",35.32708335,33.2291667,31935,"girne","Cyprus"
"351","cy","03",34.925000025,33.60833335,72875,"larnaca","Cyprus"
"352","cy","04",35.143819475,33.156319475,72654,"nicosia","Cyprus"
"353","cy","05",34.6861111,32.9972222,165148,"lemesos","Cyprus"
"354","cy","06",34.85395835,32.419097225,46080,"pafos","Cyprus"
"355","cz","52",50.083333,14.466667,1154508,"prague","Czechia"
"356","cz","78",49.0410249220779,16.7956234935065,783990,"brno","Czechia"
"357","cz","79",49.0714909387755,14.5696461836735,419191,"ceske budejovice","Czechia"
"358","cz","82",50.3763352093023,15.9121351162791,374007,"hradec kralove","Czechia"
"359","cz","83",50.7626176341463,14.9073574634146,387695,"liberec","Czechia"
"360","cz","84",49.7805331818182,17.1359184318182,415536,"olomouc","Czechia"
"361","cz","85",49.7680719428571,18.1796985571429,1069493,"ostrava","Czechia"
"362","cz","88",50.0672045393258,14.5131153146067,713467,"kladno","Czechia"
"363","cz","89",50.592022516129,13.821960516129,517695,"usti","Czechia"
"364","cz","90",49.2181898913043,17.7209688043478,396215,"zlin","Czechia"
"365","de","01",48.6505689008621,8.95676431465517,6985677,"stuttgart","Germany"
"366","de","02",48.7512691513761,11.3982873027523,6536119,"munich","Germany"
"367","de","04",53.55,10,1733846,"hamburg","Germany"
"368","de","05",50.3555666466667,8.86193520666667,4280110,"frankfurt","Germany"
"369","de","06",52.6237968235294,9.15481280748663,5562730,"hanover","Germany"
"370","de","07",51.4331392173913,7.44649673291925,17346440,"cologne","Germany"
"371","de","08",49.906741875,7.78529516666667,1583242,"mainz","Germany"
"372","de","10",53.9711309285714,10.0505952678571,1606145,"kiel","Germany"
"373","de","13",50.9805556212121,13.1646464848485,2608409,"leipzig","Germany"
"374","de","16",52.516667,13.4,3398362,"berlin","Germany"
"375","dj","03",11.595,43.1480556,623891,"jibuti","Djibouti"
"376","dk","17",55.8075713333333,12.5005146666667,1517668,"copenhagen","Denmark"
"377","dk","18",56.208719472973,9.57803756756757,791152,"arhus","Denmark"
"378","dk","19",57.0784811860465,9.81342779069768,348994,"aalborg","Denmark"
"379","dk","20",55.3503097142857,11.7879261428571,490534,"roskilde","Denmark"
"380","dk","21",55.3245214096386,9.68673634939759,767185,"odense","Denmark"
"381","dm","02",15.55,-61.30833335,4904,"marigot","Dominica"
"382","dm","03",15.475,-61.2666667,4503,"atkinson","Dominica"
"383","dm","04",15.3,-61.4,16571,"roseau","Dominica"
"384","dm","05",15.5833333,-61.4666667,3608,"portsmouth","Dominica"
"385","dm","06",15.4333333,-61.45,1498,"barroui","Dominica"
"386","dm","07",15.25,-61.3833333,1202,"pointe michel","Dominica"
"387","dm","09",15.2833333,-61.28333335,5699,"berekua","Dominica"
"388","dm","10",15.35833335,-61.375,3107,"mahaut","Dominica"
"389","dm","11",15.4833333,-61.4833333,1604,"coulihaut","Dominica"
"390","do","05",18.4666667,-69.9,2202016,"santo domingo","Dominican Republic"
"391","do","06",19.2277777666667,-70.1888889,143910,"san francisco de macoris","Dominican Republic"
"392","do","10",18.6166667,-68.7,123803,"higuey","Dominican Republic"
"393","do","12",18.4166667,-68.9666667,208439,"la romana","Dominican Republic"
"394","do","18",19.7833333333333,-70.6611111,144688,"puerto plata","Dominican Republic"
"395","do","23",18.83680555,-71.3773611,94755,"san juan de la maguana","Dominican Republic"
"396","do","24",18.5,-69.35833335,235598,"san pedro de macoris","Dominican Republic"
"397","do","25",19.5,-70.7222222333333,612357,"santiago","Dominican Republic"
"398","do","30",19.100000025,-70.6375,172202,"la vega","Dominican Republic"
"399","do","33",18.5000000333333,-70.1,260884,"san cristobal","Dominican Republic"
"400","dz","01",36.7630556,3.0505556,1980242,"algiers","Algeria"
"401","dz","04",36.365,6.6147222,450126,"constantine","Algeria"
"402","dz","06",35.95125,2.9875,199170,"medea","Algeria"
"403","dz","07",36.1005556,0.42,25309,"sidi ali","Algeria"
"404","dz","09",35.6911111,-0.6416667,646025,"wahran","Algeria"
"405","dz","14",36.84694445,4.19458335,61146,"timizart","Algeria"
"406","dz","18",36.3872222,4.4016667,21497,"tazmalt","Algeria"
"407","dz","25",34.1088889,2.1019444,84998,"aflu","Algeria"
"408","dz","34",27.9,-0.2833333,89441,"adrar","Algeria"
"409","dz","50",32.52875,5.69722225,199662,"warqla","Algeria"
"410","ec","02",-2.89166665,-78.8833333,294086,"cuenca","Ecuador"
"411","ec","08",-3.51875,-79.8666666875,379602,"machala","Ecuador"
"412","ec","09",0.89244444,-79.40616668,182794,"esmeraldas","Ecuador"
"413","ec","10",-2.04090909090909,-79.9696969681818,2660181,"guayaquil","Ecuador"
"414","ec","11",0.32333332,-78.1666667,174098,"ibarra","Ecuador"
"415","ec","12",-4.0812499875,-79.620833325,199355,"loja","Ecuador"
"416","ec","13",-1.52619047142857,-79.5285714285714,309273,"quevedo","Ecuador"
"417","ec","14",-0.936904764285714,-80.3785714285714,584204,"manta","Ecuador"
"418","ec","18",-0.24666668,-78.56,1657673,"quito","Ecuador"
"419","ec","19",-1.28333335,-78.525,187904,"ambato","Ecuador"
"420","ee","01",59.3474566015625,24.7949522546875,491961,"tallinn","Estonia"
"421","ee","03",59.3111458333333,27.3531828791667,164033,"narva","Estonia"
"422","ee","04",58.9975378818182,25.7052777818182,33085,"paide","Estonia"
"423","ee","05",58.7100378818182,26.3770959636364,22505,"jogeva","Estonia"
"424","ee","08",59.2788620064516,26.3483602129032,47654,"rakvere","Estonia"
"425","ee","11",58.399991325,24.636788196875,70841,"parnu","Estonia"
"426","ee","13",58.9429671727273,24.7447727318182,22215,"rapla","Estonia"
"427","ee","18",58.3559182111111,26.7009722333333,125188,"tartu","Estonia"
"428","ee","20",58.3441071428571,25.5877480214286,37312,"viljandi","Estonia"
"429","ee","21",57.7948830368421,26.8677924,23548,"voru","Estonia"
"430","eg","01",30.959305575,31.425902775,381848,"talkha","Egypt"
"431","eg","04",29.3227778,31.0227778,343874,"el faiyum","Egypt"
"432","eg","05",30.8836111,31.0825,836022,"el mahalla el kubra","Egypt"
"433","eg","06",31.1980556,29.9191667,3811512,"alexandria","Egypt"
"434","eg","08",29.9126389,31.1311111,2485420,"gizeh","Egypt"
"435","eg","11",30.05,31.25,7734602,"cairo","Egypt"
"436","eg","15",29.9666667,32.55,488124,"suez","Egypt"
"437","eg","17",27.22472225,31.1665278,489370,"asyut","Egypt"
"438","eg","19",31.2666667,32.3,538377,"port said","Egypt"
"439","eg","23",25.816875,32.59881945,781330,"luxor","Egypt"
"440","er","00",14.9702777833333,38.79685185,624195,"asmara","Eritrea"
"441","es","29",40.4051064666667,-3.74878653333333,5300992,"madrid","Spain"
"442","es","31",37.9290768695652,-1.30037543478261,1166293,"murcia","Spain"
"443","es","51",37.1837762575758,-4.80369590151515,5903510,"sevilla","Spain"
"444","es","53",28.3293,-15.7511452142857,1294043,"las palmas","Spain"
"445","es","54",39.4006332962963,-3.19123711111111,911805,"albacete","Spain"
"446","es","55",41.8281713043478,-5.07934469565217,1337459,"valladolid","Spain"
"447","es","56",41.5395111818182,2.00874625454545,4085739,"barcelona","Spain"
"448","es","58",42.8002900540541,-8.39180989189189,1367341,"vigo","Spain"
"449","es","59",43.21324448,-2.51221476,1060601,"bilbao","Spain"
"450","es","60",39.051562902439,-0.484262414634146,1848264,"valencia","Spain"
"451","et","44",9.024325,38.749226,2757807,"addis abeba","Ethiopia"
"452","et","45",10.612361,40.83416675,69411,"dubti","Ethiopia"
"453","et","46",11.130875,38.56324995,887228,"bahir dar","Ethiopia"
"454","et","48",9.593056,41.866111,252347,"dire dawa","Ethiopia"
"455","et","49",8.25,34.583333,42474,"gambela","Ethiopia"
"456","et","50",9.309444,42.125833,90226,"harer","Ethiopia"
"457","et","51",8.09722602222222,38.4626597333333,1432627,"nazret","Ethiopia"
"458","et","52",9.35,42.8,57146,"jijiga","Ethiopia"
"459","et","53",13.7290424,38.5456844,145569,"adwa","Ethiopia"
"460","et","54",6.68461546153846,37.5782053076923,400166,"awassa","Ethiopia"
"461","fi","01",60.1,19.95,10682,"maarianhamina","Finland"
"462","fi","06",66.1875,25.4708335,87987,"rovaniemi","Finland"
"463","fi","08",64.7033334,25.8083333,275503,"oulu","Finland"
"464","fi","13",60.6285523333333,25.5212373636364,1699110,"helsinki","Finland"
"465","fi","14",62.66666675,28.295833375,295263,"kuopio","Finland"
"466","fi","15",61.6736433953488,22.8616278372093,1205548,"tampere","Finland"
"467","fo","00",62.0383771907895,-6.84364035263158,41491,"torshavn","Faroe Islands"
"468","fr","97",44.3154943902439,-0.590006634146341,1168880,"bordeaux","France"
"469","fr","A2",48.2449014333333,-2.74228813333333,986895,"rennes","France"
"470","fr","A3",47.8603935,1.74018697058824,944956,"tours","France"
"471","fr","A8",48.8370179627907,2.34455326046512,8626210,"paris","France"
"472","fr","A9",43.5767819583333,3.69195554166667,958856,"montpellier","France"
"473","fr","B3",43.7316005,1.54904089285714,971064,"toulouse","France"
"474","fr","B4",50.5554294482759,2.92753651724138,1986104,"lille","France"
"475","fr","B5",47.38404484375,-1.06010709375,1273455,"nantes","France"
"476","fr","B8",43.5936450714286,5.894726,3161279,"marseille","France"
"477","fr","B9",45.6077798513514,5.23713367567568,2422131,"lyon","France"
"478","ga","01",0.52,9.72666666,598420,"libreville","Gabon"
"479","ga","02",-1.31666665,13.595833325,49669,"moanda","Gabon"
"480","ga","03",-0.44166665,10.48333335,25812,"lambarene","Gabon"
"481","ga","04",-1.79666666,11.31666666,41759,"mouila","Gabon"
"482","ga","05",-3.02222223333333,10.6166666666667,33318,"tchibanga","Gabon"
"483","ga","06",0.23333335,12.4,19358,"makokou","Gabon"
"484","ga","07",-0.975,12.59166665,24562,"koulamoutou","Gabon"
"485","ga","08",-1.64444446666667,9.34444443333333,120758,"port-gentil","Gabon"
"486","ga","09",1.49444443333333,11.5444444333333,45053,"oyem","Gabon"
"487","gb","A7",52.516667,-1.866667,1091366,"birmingham","United Kingdom"
"488","gb","E4",51.70138875,0.5208335,738349,"colchester","United Kingdom"
"489","gb","F2",51.0444445833333,-1.11388875,657446,"basingstoke","United Kingdom"
"490","gb","F8",51.7884616153846,-0.239743769230769,670461,"watford","United Kingdom"
"491","gb","G5",51.2899999333333,0.819999933333333,714446,"maidstone","United Kingdom"
"492","gb","H2",53.7538462307692,-2.60256407692308,652239,"preston","United Kingdom"
"493","gb","H3",53.772222,-1.611111,545619,"leeds","United Kingdom"
"494","gb","H9",51.514125,-0.093689,7421228,"london","United Kingdom"
"495","gb","R3",54.583333,-5.933333,585994,"belfast","United Kingdom"
"496","gb","V2",55.833333,-4.25,610271,"glasgow","United Kingdom"
"497","gd","01",12.1166667,-61.6166667,2476,"grenville","Grenada"
"498","gd","04",12.1666667,-61.7333333,3378,"gouyave","Grenada"
"499","gd","05",12.1833333,-61.7,2256,"victoria","Grenada"
"500","gd","06",12.35,-61.55,2090,"sauteurs","Grenada"
"501","ge","02",42.9453703666667,41.0838888833333,143439,"sukhumi","Georgia"
"502","ge","08",41.7407407333333,45.2108333333333,31716,"sagarejo","Georgia"
"503","ge","13",41.781458325,43.465972225,20048,"borjomi","Georgia"
"504","ge","19",41.8575925777778,44.7445061666667,1087047,"tbilisi","Georgia"
"505","ge","22",41.7038889,44.3434259333333,60527,"gori","Georgia"
"506","ge","28",42.00680555,43.5727778,37905,"khashuri","Georgia"
"507","ge","47",42.1790278,42.34583335,31442,"samtredia","Georgia"
"508","ge","48",42.2688889,42.0791667,27755,"senaki","Georgia"
"509","ge","59",42.3397222,42.5991667,16737,"tskaltubo","Georgia"
"510","ge","62",42.5013889,41.8613889,73014,"zugdidi","Georgia"
"511","gf","00",4.79861110833333,-52.9027777666667,146399,"cayenne","French Guiana"
"512","gh","01",5.55,-0.2166667,1963460,"accra","Ghana"
"513","gh","02",6.70666666,-1.30500001,1840243,"kumasi","Ghana"
"514","gh","03",7.48571427142857,-2.1142857,222642,"sunyani","Ghana"
"515","gh","04",5.2111111,-0.961111116666667,262283,"cape coast","Ghana"
"516","gh","05",6.0833333,-0.25,76669,"koforidua","Ghana"
"517","gh","06",9.09494444,-0.44222224,472626,"tamale","Ghana"
"518","gh","08",6.07340740666667,0.1672963,921083,"tema","Ghana"
"519","gh","09",5.61382352941177,-1.43282678823529,573704,"takoradi","Ghana"
"520","gh","10",10.9128704,-0.7289815,107148,"bawku","Ghana"
"521","gh","11",10.05,-2.4833333,50268,"wa","Ghana"
"522","gi","00",36.1333333,-5.35,26544,"gibraltar","Gibraltar"
"523","gl","01",77.1460648,-68.42435185,2521,"narsaq","Greenland"
"524","gl","02",67.0595238,-33.1857142714286,3192,"tasiilaq","Greenland"
"525","gl","03",66.5889454685185,-51.0511779851852,46299,"nuuk","Greenland"
"526","gm","01",13.4530556,-16.5775,34598,"banjul","Gambia"
"527","gm","02",13.5666667,-15.6,36831,"farafenni","Gambia"
"528","gm","03",13.54166665,-14.75833335,18551,"kuntaur","Gambia"
"529","gm","04",13.2611111,-14.2444444666667,30683,"basse","Gambia"
"530","gm","05",13.3596428714286,-16.6659920571429,421767,"serekunda","Gambia"
"531","gm","07",13.4853703666667,-16.3904629666667,13337,"barra","Gambia"
"532","gn","04",9.5091667,-13.7122222,1871185,"conakry","Guinea"
"533","gn","16",10.0666667,-12.85,117095,"kindia","Guinea"
"534","gn","17",9.1833333,-10.1,47097,"kissidougou","Guinea"
"535","gn","21",8.5461111,-9.4694444,43107,"macenta","Guinea"
"536","gn","23",10.15,-11.95,41618,"mamou","Guinea"
"537","gn","27",10.9,-13.0333333,30310,"telimele","Guinea"
"538","gn","32",10.3833333,-9.3,114103,"kankan","Guinea"
"539","gn","34",11.3166667,-12.2833333,46510,"labe","Guinea"
"540","gn","38",7.7472222,-8.8238889,132842,"nzerekore","Guinea"
"541","gn","39",11.4166667,-9.1666667,43599,"siguiri","Guinea"
"542","gp","00",16.24375,-61.6347222125,357990,"les abymes","Guadeloupe"
"543","gq","04",3.75,8.7833333,156039,"malabo","Equatorial Guinea"
"544","gq","05",3.41666665,8.65833335,9640,"luba","Equatorial Guinea"
"545","gq","06",1.2611111,10.7222222333333,22405,"aconibe","Equatorial Guinea"
"546","gq","07",2.04444443333333,10.9055555666667,40872,"ebebiyin","Equatorial Guinea"
"547","gq","08",1.71666665,9.68333335,177097,"bata","Equatorial Guinea"
"548","gq","09",1.6333333,11.3166667,6397,"mongomo","Equatorial Guinea"
"549","gr","05",41.0884854571429,23.493584652381,127025,"serrai","Greece"
"550","gr","13",40.5706623948718,23.0251780538462,837550,"thessaloniki","Greece"
"551","gr","21",39.7283333333333,22.406409462963,211786,"larisa","Greece"
"552","gr","24",39.2676504541667,23.0838888833333,137702,"volos","Greece"
"553","gr","31",38.6542682926829,21.257500002439,122058,"agrinion","Greece"
"554","gr","34",38.5128513,23.7043545676471,133587,"khalkis","Greece"
"555","gr","35",38.0067613659091,23.7275284068182,2662462,"athens","Greece"
"556","gr","38",38.18459722,21.87394444,228427,"patrai","Greece"
"557","gr","45",35.2135057413793,25.1487547896552,203706,"iraklion","Greece"
"558","gr","47",36.6197685166667,27.415370375,145395,"rodos","Greece"
"559","gt","03",14.669618,-90.9086631875,254280,"chimaltenango","Guatemala"
"560","gt","06",14.2192948461538,-90.9070299230769,304788,"escuintla","Guatemala"
"561","gt","07",14.6314660555556,-90.5206636111111,3598227,"guatemala","Guatemala"
"562","gt","08",15.5259483103448,-91.6369062068966,223703,"huehuetenango","Guatemala"
"563","gt","13",14.8583333636364,-91.6022728181818,370523,"quetzaltenango","Guatemala"
"564","gt","14",15.17225,-91.00144445,211185,"chichicastenango","Guatemala"
"565","gt","16",14.5733506875,-90.7301040625,241862,"antigua guatemala","Guatemala"
"566","gt","17",14.9759325357143,-91.8878571071428,213617,"san pedro sacatepequez","Guatemala"
"567","gt","20",14.5157893684211,-91.417544,191013,"mazatenango","Guatemala"
"568","gt","21",14.977381,-91.4181348571429,176616,"totonicapan","Guatemala"
"569","gw","01",12.1666667,-14.6666667,22521,"bafata","Guinea-Bissau"
"570","gw","02",11.5833333,-15,7779,"buba","Guinea-Bissau"
"571","gw","04",11.93944444,-15.21372224,35700,"bissora","Guinea-Bissau"
"572","gw","05",11.5833333,-15.4666667,10769,"bolama","Guinea-Bissau"
"573","gw","06",11.8737037,-16.0108333,27284,"cacheu","Guinea-Bissau"
"574","gw","07",11.2833333,-15.25,9898,"catio","Guinea-Bissau"
"575","gw","10",12.2833333,-14.2166667,14430,"gabu","Guinea-Bissau"
"576","gw","11",11.85,-15.5833333,388094,"bissau","Guinea-Bissau"
"577","gy","10",8.2,-59.7833333,717,"mabaruma","Guyana"
"578","gy","11",6.4,-58.6166667,11159,"bartica","Guyana"
"579","gy","12",6.8,-58.1666667,235017,"georgetown","Guyana"
"580","gy","13",6.06666665,-57.325,40898,"new amsterdam","Guyana"
"581","gy","14",6.8,-58.1833333,3073,"vreed en hoop","Guyana"
"582","gy","15",6.4111111,-57.6444444333333,10165,"rosignol","Guyana"
"583","gy","18",5.76666665,-58.275,49257,"linden","Guyana"
"584","gy","19",3.3833333,-59.8,716,"lethem","Guyana"
"585","hn","01",15.689333336,-87.102666672,214940,"la ceiba","Honduras"
"586","hn","02",13.300216062963,-87.1257716111111,129855,"choluteca","Honduras"
"587","hn","04",14.5934959317073,-87.689837395122,174356,"comayagua","Honduras"
"588","hn","05",14.9048245605263,-88.8684210447368,105197,"santa rosa de copan","Honduras"
"589","hn","06",15.3541666616667,-88.0088888866667,908200,"san pedro sula","Honduras"
"590","hn","07",13.963045262963,-86.6221399185185,109203,"danli","Honduras"
"591","hn","08",14.2494501204082,-87.2054705285714,960381,"tegucigalpa","Honduras"
"592","hn","15",14.7854838709677,-86.2956989129032,123419,"juticalpa","Honduras"
"593","hn","16",15.0801252745098,-88.3793790784314,115374,"santa barbara","Honduras"
"594","hn","18",15.29333334,-87.222999998,257264,"el progreso","Honduras"
"595","hr","02",45.2076389,17.6993056,74071,"slavonski brod","Croatia"
"596","hr","03",42.990972225,17.4736111,58956,"dubrovnik","Croatia"
"597","hr","04",45.14604165,13.685972225,86127,"pula","Croatia"
"598","hr","10",45.66055555,18.64875,96854,"osijek","Croatia"
"599","hr","12",45.02935185,14.7229166666667,164467,"rijeka","Croatia"
"600","hr","14",45.0102777833333,16.4119444166667,85693,"sisak","Croatia"
"601","hr","15",43.54494444,16.5071111,221323,"split","Croatia"
"602","hr","18",45.2363888666667,18.8339814666667,76741,"vinkovci","Croatia"
"603","hr","20",44.5918518333333,15.5899074,111616,"zadar","Croatia"
"604","hr","21",45.8291666666667,15.9747222333333,769003,"zagreb","Croatia"
"605","ht","03",19.95,-72.8333333,34659,"port-de-paix","Haiti"
"606","ht","06",19.23666666,-72.6,225310,"gonaives","Haiti"
"607","ht","07",18.9375925666667,-72.0194444666667,35232,"hinche","Haiti"
"608","ht","08",18.53333335,-73.59166665,36929,"jeremie","Haiti"
"609","ht","09",19.56155554,-72.22083334,189069,"cap-haitien","Haiti"
"610","ht","10",19.6,-71.775,11960,"ouanaminthe","Haiti"
"611","ht","11",18.5039285714286,-72.4461507857143,2191021,"port-au-prince","Haiti"
"612","ht","12",18.24166665,-73.575,64542,"les cayes","Haiti"
"613","ht","13",18.2341667,-72.5347222,33569,"jacmel","Haiti"
"614","hu","01",46.5440388412698,19.3432248730159,475370,"kecskemet","Hungary"
"615","hu","03",46.6726190238095,20.9904761190476,356372,"bekescsaba","Hungary"
"616","hu","04",48.1391062205882,20.9676667647059,368973,"ozd","Hungary"
"617","hu","05",47.5,19.083333,1708088,"budapest","Hungary"
"618","hu","08",47.1302743,18.57582352,361027,"szekesfehervar","Hungary"
"619","hu","10",47.462853,21.5175320930233,302697,"hajduboszormeny","Hungary"
"620","hu","12",47.6587320909091,18.4110979393939,266988,"tatabanya","Hungary"
"621","hu","16",47.45606165625,19.2961370390625,1053386,"erd","Hungary"
"622","hu","18",48.0058142317073,22.0186498780488,457358,"nyiregyhaza","Hungary"
"623","hu","20",47.2820330909091,20.3364023863636,370193,"szolnok","Hungary"
"624","id","04",-6.174444,106.829444,8540306,"jakarta","Indonesia"
"625","id","07",-7.16981018947368,110.106280357895,8023744,"semarang","Indonesia"
"626","id","08",-7.6721653373494,112.763055951807,8563971,"surabaya","Indonesia"
"627","id","10",-7.77856483333333,110.360077277778,1545619,"yogyakarta","Indonesia"
"628","id","14",0.813889,117.2416665,1209269,"balikpapan","Indonesia"
"629","id","26",3.20289017647059,98.9745117647059,3291814,"medan","Indonesia"
"630","id","30",-6.67522330434783,107.546003065217,17985426,"bandung","Indonesia"
"631","id","32",-3.575,104.175,1545537,"palembang","Indonesia"
"632","id","33",-6.26918571428571,106.1158,1083207,"cilegon","Indonesia"
"633","id","38",-4.6497,119.9191,1732385,"makasar","Indonesia"
"634","ie","04",51.906499995,-8.62081945,283846,"cork","Ireland"
"635","ie","07",53.46850001,-6.19527777,1113425,"dublin","Ireland"
"636","ie","10",53.2777380857143,-8.73785714285714,93775,"galway","Ireland"
"637","ie","12",53.2399801571429,-6.75549602857143,117426,"naas","Ireland"
"638","ie","16",52.48394444,-8.9003889,98965,"limerick","Ireland"
"639","ie","19",53.8595370333333,-6.43500003333333,70877,"drogheda","Ireland"
"640","ie","21",53.58227778,-6.58275002,67890,"navan","Ireland"
"641","ie","26",52.5955555333333,-7.85716051111111,55180,"clonmel","Ireland"
"642","ie","27",52.16655556,-7.24094444,68718,"waterford","Ireland"
"643","ie","31",53.062916675,-6.1693055625,75042,"bray","Ireland"
"644","il","01",31.2079556363636,34.7520111818182,532571,"ashdod","Israel"
"645","il","02",32.0982373846154,34.8696206153846,855601,"ashdod","Israel"
"646","il","03",32.8665659655172,35.3236106896552,298491,"nahariyya","Israel"
"647","il","04",32.7524681818182,35.0367808181818,501401,"haifa","Israel"
"648","il","05",32.0741051111111,34.817284,872718,"tel aviv-yafo","Israel"
"649","il","06",31.778504,35.109356,785093,"jerusalem","Israel"
"650","in","02",16.5789429513514,80.0455315297297,17499212,"hyderabad","India"
"651","in","07",28.71,77.1333334,22096567,"new delhi","India"
"652","in","09",22.2962994827586,71.9455443678161,17756743,"ahmadabad","India"
"653","in","16",19.298412236,75.469132208,38756314,"bombay","India"
"654","in","19",14.4796833130841,76.1224273130841,16989877,"bangalore","India"
"655","in","24",26.4473946779661,74.9583186327684,13189435,"jaipur","India"
"656","in","25",10.9659843333333,78.4816193442029,17636048,"madras","India"
"657","in","28",23.5307123575419,88.0933852849162,19095293,"calcutta","India"
"658","in","35",23.651264627907,78.1366708837209,14544543,"indore","India"
"659","in","36",27.3018145,79.9021872890995,31106479,"kanpur","India"
"660","iq","01",34.0526389,42.3697222,52657,"hit","Iraq"
"661","iq","05",35.6202778,45.9472222,27219,"panjwin","Iraq"
"662","iq","07",33.3386111,44.3938889,5672516,"baghdad","Iraq"
"663","iq","10",35.1002777666667,44.5023148,189250,"dahuk","Iraq"
"664","iq","11",36.19,44.0088889,932854,"irbil","Iraq"
"665","iq","13",35.4680556,44.3922222,601442,"kirkuk","Iraq"
"666","iq","15",36.40305555,42.48458335,62050,"sinjar","Iraq"
"667","iq","18",34.5126852,43.7702777666667,121417,"tikrit","Iraq"
"668","ir","01",37.39651,45.39434,1513950,"orumiyeh","Iran"
"669","ir","07",28.825504375,53.399323875,1840337,"shiraz","Iran"
"670","ir","08",37.3988688888889,49.6243343333333,1030319,"rasht","Iran"
"671","ir","15",31.1547662666667,49.0200355333333,2316205,"ahvaz","Iran"
"672","ir","26",35.4943822,51.4575789,1105869,"eslamshahr","Iran"
"673","ir","28",32.8324335833333,51.2274758333333,2462150,"esfahan","Iran"
"674","ir","29",29.9252003,56.6540268,1375581,"kerman","Iran"
"675","ir","33",38.05065,46.4503,1929781,"tabriz","Iran"
"676","ir","42",36.0511118571429,59.592744,3009138,"mashhad","Iran"
"677","ir","44",35.8419,50.8345333333333,1543200,"karaj","Iran"
"678","is","03",63.9625,-20.9875,6661,"selfoss","Iceland"
"679","is","06",64.25,-15.216667,1695,"hofn","Iceland"
"680","is","07",64.516667,-21.7222223333333,5868,"akranes","Iceland"
"681","is","09",65.8583335,-18.3,18137,"akureyri","Iceland"
"682","is","10",64,-22.3194445,151633,"reykjavik","Iceland"
"683","is","17",64.533333,-21.916667,1783,"borgarnes","Iceland"
"684","is","23",63.6494443333333,-20.2802776666667,5650,"vestmannaeyjar","Iceland"
"685","is","29",64.9555556666667,-23.45,2459,"stykkisholmur","Iceland"
"686","is","32",66,-17.7666665,2638,"husavik","Iceland"
"687","is","36",66.1055556666667,-23.3,1626,"bolungarvik","Iceland"
"688","it","04",40.8518151782178,14.4628712475248,3949227,"naples","Italy"
"689","it","05",44.5539935064935,11.3239213246753,2731250,"bologna","Italy"
"690","it","07",41.7739130434783,12.8130435072464,4585088,"rome","Italy"
"691","it","08",44.1621795769231,8.73205130769231,1130995,"genoa","Italy"
"692","it","09",45.5395569556962,9.45327003164557,5057800,"milan","Italy"
"693","it","12",45.0890547313433,7.94378111940298,2404751,"turin","Italy"
"694","it","13",40.7353687327586,17.203110637931,3376336,"bari","Italy"
"695","it","15",37.5498498288288,14.1932432162162,3887885,"palermo","Italy"
"696","it","16",43.6412602073171,10.9443089268293,2653644,"florence","Italy"
"697","it","20",45.5181010272727,11.8359999727273,2753225,"venice","Italy"
"698","jm","01",17.9666667,-77.2333333,44757,"may pen","Jamaica"
"699","jm","04",18.0333333,-77.5,47116,"mandeville","Jamaica"
"700","jm","07",18.1833333,-76.4666667,14235,"port antonio","Jamaica"
"701","jm","08",18,-76.8,602551,"kingston","Jamaica"
"702","jm","09",18.4222222333333,-77.2611111333333,16251,"ocho rios","Jamaica"
"703","jm","10",17.975,-76.90833335,247889,"spanish town","Jamaica"
"704","jm","11",17.95,-77.725,11191,"bull savanna","Jamaica"
"705","jm","12",18.38333335,-77.8875,94602,"montego bay","Jamaica"
"706","jm","14",17.8833333,-76.4166667,9369,"morant bay","Jamaica"
"707","jm","15",18.39166665,-77.6,11229,"falmouth","Jamaica"
"708","jo","02",32.3818205757576,35.8052272121212,646478,"irbid","Jordan"
"709","jo","09",31.1977496666667,36.03888,16622,"diban","Jordan"
"710","jo","12",30.737604,35.607747,8238,"busayra","Jordan"
"711","jo","19",30.322211,35.479329,15618,"wadi musa","Jordan"
"712","jp","01",35.0396200571429,137.0069462,6061465,"nagoya","Japan"
"713","jp","04",35.6311269459459,140.190875972973,4660303,"funabashi","Japan"
"714","jp","07",33.5618539166667,130.631846708333,2423634,"kitakyushu","Japan"
"715","jp","12",43.2565305348837,142.115054511628,2633638,"asahikawa","Japan"
"716","jp","13",34.8300719545455,134.998532636364,4751508,"kobe","Japan"
"717","jp","19",35.3330645909091,139.377835136364,4780178,"kawasaki","Japan"
"718","jp","32",34.6282580357143,135.5233985,5135976,"sakai","Japan"
"719","jp","34",35.9681695,139.539874480769,6540293,"saitama","Japan"
"720","jp","37",34.891670875,138.361853916667,2411543,"hamamatsu","Japan"
"721","jp","40",35.6951638076923,139.462356615385,35233335,"tokyo","Japan"
"722","ke","01",-0.738541675,36.88333333125,298508,"thika","Kenya"
"723","ke","02",-3.6046875,39.53720486875,1050757,"mombasa","Kenya"
"724","ke","03",-0.237200853846154,37.7899359,263182,"meru","Kenya"
"725","ke","05",-1.21666665,36.8916667,2865197,"nairobi","Kenya"
"726","ke","06",1.7387963,40.5244444333333,149588,"garissa","Kenya"
"727","ke","07",-0.404282408333333,34.67824075,385167,"kisumu","Kenya"
"728","ke","08",-0.162903219354839,35.8951612903226,983115,"nakuru","Kenya"
"729","ke","09",0.368269230769231,34.3747863307692,273888,"kakamega","Kenya"
"730","kg","01",42.8875,74.8472222,20182,"kant","Kyrgyzstan"
"731","kg","02",42.81333335,75.4897222,73342,"tokmak","Kyrgyzstan"
"732","kg","03",41.9033333,72.9455556,19336,"toktogul","Kyrgyzstan"
"733","kg","04",41.1697222,75.8102778,15227,"at-bashi","Kyrgyzstan"
"734","kg","05",40.1767592666667,70.7954629666667,72335,"ozgon","Kyrgyzstan"
"735","kg","06",42.5222222,72.2419444,35172,"talas","Kyrgyzstan"
"736","kg","07",42.5247222,78.2437963,100537,"karakol","Kyrgyzstan"
"737","kg","09",40.05,70.8333333,10155,"batken","Kyrgyzstan"
"738","kh","01",13.5833333,102.9833333,23215,"sisophon","Cambodia"
"739","kh","02",12.225,105.51666665,89619,"kampong cham","Cambodia"
"740","kh","03",12.25,104.6666667,75304,"kampong chhnang","Cambodia"
"741","kh","05",12.7,104.9,19955,"kampong thum","Cambodia"
"742","kh","06",10.6166667,104.1833333,22696,"kampot","Cambodia"
"743","kh","07",11.4833333,104.95,52066,"ta khmau","Cambodia"
"744","kh","09",12.4833333,106.0166667,19979,"kracheh","Cambodia"
"745","kh","11",11.55,104.9166667,1573523,"phnum penh","Cambodia"
"746","kh","12",12.5333333,103.9166667,52486,"pousat","Cambodia"
"747","kh","18",11.0833333,105.8,23956,"svay rieng","Cambodia"
"748","ki","00",0.289743584615385,173.748717953846,66514,"bairiki","Kiribati"
"749","km","01",-12.2098611,44.46416665,38101,"mutsamudu","Comoros"
"750","km","02",-11.54444445,43.2623611,48986,"moroni","Comoros"
"751","km","03",-12.28,43.7425,14965,"fomboni","Comoros"
"752","kn","01",17.3666667,-62.75,690,"mansion","St. Kitts & Nevis"
"753","kn","02",17.35833335,-62.84166665,1175,"sandy point","St. Kitts & Nevis"
"754","kn","03",17.3,-62.7166667,12920,"basseterre","St. Kitts & Nevis"
"755","kn","04",17.1333333,-62.55,493,"gingerland","St. Kitts & Nevis"
"756","kn","05",17.2,-62.5833333,493,"newcastle","St. Kitts & Nevis"
"757","kn","06",17.40833335,-62.79166665,1578,"sadlers","St. Kitts & Nevis"
"758","kn","07",17.125,-62.60833335,1933,"charlestown","St. Kitts & Nevis"
"759","kn","08",17.35,-62.7333333,788,"cayon","St. Kitts & Nevis"
"760","kn","11",17.3166667,-62.7166667,592,"monkey hill","St. Kitts & Nevis"
"761","kn","13",17.3166667,-62.8166667,887,"middle island","St. Kitts & Nevis"
"762","kr","11",37.5985,126.9783,10323448,"seoul","South Korea"
"763","kw","02",29.330741,48.0103703333333,151170,"hawalli","Kuwait"
"764","kw","05",29.367778,47.81,37804,"doha","Kuwait"
"765","ky","00",19.3166666666667,-81.35,44622,"george town","Cayman Islands"
"766","kz","01",44.2872726363636,78.1822221818182,303394,"sarkand","Kazakhstan"
"767","kz","02",43.25,76.95,1204820,"almaty","Kazakhstan"
"768","kz","04",49.5439285714286,57.5484522857143,333562,"aqtobe","Kazakhstan"
"769","kz","05",51.181111,71.427778,345621,"astana","Kazakhstan"
"770","kz","10",42.185808,68.8841414545455,750762,"shymkent","Kazakhstan"
"771","kz","11",52.106,76.2271112,534585,"pavlodar","Kazakhstan"
"772","kz","12",48.8578632307692,72.8881837692308,505607,"temirtau","Kazakhstan"
"773","kz","13",52.9392062857143,62.9584125714286,341550,"qostanay","Kazakhstan"
"774","kz","15",49.2850463333333,82.39798625,793313,"oskemen","Kazakhstan"
"775","kz","17",43.131076375,72.25104175,520036,"taraz","Kazakhstan"
"776","la","02",15,105.825,101457,"pakxe","Laos"
"777","la","03",20.419722,104.043889,38976,"xam nua","Laos"
"778","la","04",18.233333,104.216667,3465,"ban nahin","Laos"
"779","la","11",17.966667,102.6,196644,"vientiane","Laos"
"780","la","16",20.949722,101.401111,3227,"nam tha","Laos"
"781","la","17",19.885556,102.134722,47510,"luang prabang","Laos"
"782","la","19",15.716667,106.416667,5519,"saravan","Laos"
"783","la","20",16.55,104.75,66552,"savannakhet","Laos"
"784","la","21",18.492778,102.417222,10122,"phonhong","Laos"
"785","la","23",18.366667,103.65,21958,"pakxan","Laos"
"786","lb","01",33.7384722,35.89166665,25966,"riyaq","Lebanon"
"787","lb","02",33.4063889,35.3926389,148688,"sur","Lebanon"
"788","lb","04",33.8719444,35.5097222,2504020,"beirut","Lebanon"
"789","lb","05",34.04875,35.6338889,117108,"juniyah","Lebanon"
"790","lc","01",13.9,-61.0666667,710,"canaries","St. Lucia"
"791","lc","03",14,-61,12981,"castries","St. Lucia"
"792","lc","04",13.7666667,-61.05,363,"choiseul","St. Lucia"
"793","lc","05",13.9,-60.8833333,2893,"dennery","St. Lucia"
"794","lc","06",14.0611111,-60.9555555666667,3199,"gros islet","St. Lucia"
"795","lc","07",13.75,-60.9833333,1133,"laborie","St. Lucia"
"796","lc","08",13.8166667,-60.9,3458,"micoud","St. Lucia"
"797","lc","09",13.85,-61.05,2878,"soufriere","St. Lucia"
"798","lc","10",13.7166667,-60.95,4629,"vieux fort","St. Lucia"
"799","li","01",47.0666667,9.5,4447,"balzers","Liechtenstein"
"800","li","02",47.2166667,9.5166667,4008,"eschen","Liechtenstein"
"801","li","03",47.2166667,9.5,1268,"gamprin","Liechtenstein"
"802","li","04",47.2166667,9.5333333,3626,"mauren","Liechtenstein"
"803","li","06",47.2333333,9.5166667,1862,"ruggell","Liechtenstein"
"804","li","07",47.1666667,9.5,5748,"schaan","Liechtenstein"
"805","li","08",47.2333333,9.5333333,1004,"schellenberg","Liechtenstein"
"806","li","09",47.1,9.5333333,4701,"triesen","Liechtenstein"
"807","li","10",47.1166667,9.5333333,2689,"triesenberg","Liechtenstein"
"808","li","11",47.1333333,9.5166667,5197,"vaduz","Liechtenstein"
"809","lk","29",7.21166666666667,80.6197839444444,300014,"kandy","Sri Lanka"
"810","lk","30",8.14166665,80.69166665,76240,"anuradhapura","Sri Lanka"
"811","lk","31",8.75972224166667,80.85694445,876937,"jaffna","Sri Lanka"
"812","lk","32",7.47875,80.2051389,35454,"kurunegala","Sri Lanka"
"813","lk","33",6.9679167,80.37486115,65613,"ratnapura","Sri Lanka"
"814","lk","34",6.40711112,80.60755558,171149,"galle","Sri Lanka"
"815","lk","35",6.85072222,81.17044446,72299,"badulla","Sri Lanka"
"816","lk","36",6.92547979090909,79.9224873772727,1819737,"colombo","Sri Lanka"
"817","lr","01",6.9955556,-9.4722222,45947,"gbarnga","Liberia"
"818","lr","09",7.4408333,-8.53430555,38574,"yekepa","Liberia"
"819","lr","11",5.8808333,-10.0466667,25864,"buchanan","Liberia"
"820","lr","12",6.7533333,-11.3686111,12015,"robertsport","Liberia"
"821","lr","13",4.375,-7.7169444,32931,"harper","Liberia"
"822","lr","14",6.37833335,-10.7086111,968397,"monrovia","Liberia"
"823","lr","15",6.8708333,-10.8172222,3168,"tubmanburg","Liberia"
"824","lr","19",6.0666667,-8.1280556,25772,"zwedru","Liberia"
"825","ls","10",-29.15,27.7333333,25149,"teyateyaneng","Lesotho"
"826","ls","12",-28.8833333,28.05,46416,"hlotse","Lesotho"
"827","ls","13",-29.8166667,27.25,40591,"mafeteng","Lesotho"
"828","ls","14",-29.3166667,27.4833333,194387,"maseru","Lesotho"
"829","ls","16",-29.2833333,29.0833333,5484,"mokhotlong","Lesotho"
"830","ls","18",-30.4,27.7166667,17073,"quthing","Lesotho"
"831","ls","19",-29.5333333,28.6,4843,"thaba-tseka","Lesotho"
"832","lt","56",54.3309524,24.1166666714286,106352,"alytus","Lithuania"
"833","lt","57",54.88999999,23.935,455382,"kaunas","Lithuania"
"834","lt","58",55.583854175,21.2398958375,276638,"klaipeda","Lithuania"
"835","lt","59",54.60036113,23.17505555,95804,"marijampole","Lithuania"
"836","lt","60",55.6860317392857,25.0071627035714,305503,"panevezys","Lithuania"
"837","lt","61",55.8685470230769,23.3385042846154,215867,"siauliai","Lithuania"
"838","lt","62",55.2191666888889,22.3200308555556,55169,"taurage","Lithuania"
"839","lt","63",56.0447531,22.0485493777778,112753,"mazeikiai","Lithuania"
"840","lt","64",55.3125,25.79583335,53699,"utena","Lithuania"
"841","lt","65",54.634722225,25.1249999833333,616876,"vilnius","Lithuania"
"842","lu","01",49.9262369807292,5.988045428125,68072,"ettelbruck","Luxembourg"
"843","lu","02",49.6720878172043,6.35415770537634,53058,"echternach","Luxembourg"
"844","lu","03",49.6270615057143,6.073930555,280780,"luxemburg","Luxembourg"
"845","lv","06",55.8833333,26.5333333,111564,"daugavpils","Latvia"
"846","lv","12",56.65,23.7127778,61793,"jelgava","Latvia"
"847","lv","16",56.53333335,21.0916667,89466,"liepaja","Latvia"
"848","lv","21",56.779166675,24.655208325,36672,"ogre","Latvia"
"849","lv","23",56.5,27.3166667,38340,"rezekne","Latvia"
"850","lv","25",56.95541665,23.925,796658,"riga","Latvia"
"851","lv","26",56.9586111,24.3592460285714,53695,"salaspils","Latvia"
"852","lv","29",56.9337962666667,23.1772222333333,24043,"tukums","Latvia"
"853","lv","31",57.7722222333333,25.2555555666667,32302,"valmiera","Latvia"
"854","lv","32",57.3894444,21.5605556,42643,"ventspils","Latvia"
"855","ly","34",27.0333333,14.4333333,126387,"sabha","Libya"
"856","ly","41",32.4333333,13.6333333,210698,"tarhunah","Libya"
"857","ly","42",31.9251389,24.53819445,130201,"tubruq","Libya"
"858","ly","45",32.4666667,14.5666667,99289,"zlitan","Libya"
"859","ly","47",29.93361115,20.755,140967,"ajdabiya","Libya"
"860","ly","51",32.8631944,12.28194445,282347,"zuwarah","Libya"
"861","ly","54",31.8926389,20.15833335,666172,"benghazi","Libya"
"862","ly","58",32.3783333,15.0905556,386120,"misratah","Libya"
"863","ly","60",31.2061111,16.5947222,128123,"surt","Libya"
"864","ly","61",32.8925,13.18,1150990,"tripoli","Libya"
"865","ma","45",33.592779,-7.619157,3609698,"casablanca","Morocco"
"866","ma","46",34.037151,-4.999797,1160239,"fez","Morocco"
"867","ma","47",31.631485,-8.008281,942631,"marrakesh","Morocco"
"868","ma","48",33.169833,-5.567073,36496,"mrirt","Morocco"
"869","ma","49",34.013784,-6.844268,1894386,"rabat","Morocco"
"870","ma","51",32.794455,-8.7898395,366852,"asfi","Morocco"
"871","ma","52",34.426536,-5.95673133333333,563375,"kenitra","Morocco"
"872","ma","54",35.174041,-2.92866,157665,"nador","Morocco"
"873","ma","55",30.1963983333333,-9.40181,814053,"agadir","Morocco"
"874","ma","57",35.60832525,-5.62402225,1252142,"tangier","Morocco"
"875","mc","00",43.7333333,7.4166667,17259,"la condamine","Monaco"
"876","md","51",45.9922225,28.53,45316,"comrat","Moldova"
"877","md","57",47.005556,28.8575,713805,"chisinau","Moldova"
"878","md","58",47.2823334,29.2961666,119803,"rabnita","Moldova"
"879","md","60",47.761667,27.928889,150472,"balti","Moldova"
"880","md","62",46.830556,29.471111,128403,"tighina","Moldova"
"881","md","64",45.9075,28.194444,43778,"cahul","Moldova"
"882","md","82",47.383056,28.823056,49629,"orhei","Moldova"
"883","md","84",47.957222,27.553889,25055,"rascani","Moldova"
"884","md","87",48.155833,28.2975,38232,"soroca","Moldova"
"885","md","92",47.204167,27.795833,39709,"ungheni","Moldova"
"886","me","00",42.6241665,19.195625,259791,"podgorica","Montenegro"
"887","mg","01",-14.13666666,49.52,131688,"antalaha","Madagascar"
"888","mg","02",-21.5988888866667,47.3922222066667,534135,"fianarantsoa","Madagascar"
"889","mg","03",-15.60333334,47.46333332,240922,"mahajanga","Madagascar"
"890","mg","04",-17.7411111133333,49.0266666666667,625906,"toamasina","Madagascar"
"891","mg","05",-19.0756410307692,47.1256410307692,1916433,"antananarivo","Madagascar"
"892","mg","06",-23.3935897461538,45.1358974307692,496856,"toliary","Madagascar"
"893","mk","06",41.0311111,21.3402778,86528,"bitola","Macedonia"
"894","mk","34",41.7972222,20.9083333,50974,"gostivar","Macedonia"
"895","mk","41",42,21.4333333,474887,"skopje","Macedonia"
"896","mk","57",42.1322222,21.7144444,108471,"kumanovo","Macedonia"
"897","mk","74",41.1172222,20.8019444,54908,"ohrid","Macedonia"
"898","mk","82",41.3463889,21.5544444,73815,"prilep","Macedonia"
"899","mk","98",41.7458333,22.1958333,48279,"stip","Macedonia"
"900","mk","A1",41.4375,22.6433333,45509,"strumica","Macedonia"
"901","mk","A6",42.0105556,20.9713889,72945,"tetovo","Macedonia"
"902","mk","B1",41.7155556,21.7755556,57873,"veles","Macedonia"
"903","ml","00",16.75,-6.38333332,50163,"nara","Mali"
"904","ml","01",12.65,-8,1297390,"bamako","Mali"
"905","ml","03",14.133333325,-10.3333333,202190,"kayes","Mali"
"906","ml","04",14.44333334,-4.04666668,153565,"mopti","Mali"
"907","ml","05",13.31666665,-5.545833325,177135,"segou","Mali"
"908","ml","06",12.0222222333333,-5.30555556666667,261910,"sikasso","Mali"
"909","ml","07",12.67868055,-7.489409725,241705,"kolokani","Mali"
"910","ml","08",16.5916667,-3.3416667,40922,"tombouctou","Mali"
"911","ml","09",16.2666667,-0.05,38186,"gao","Mali"
"912","ml","10",18.4411111,1.4077778,11642,"kidal","Mali"
"913","mm","03",16.7818181545455,95.35,816547,"pathein","Myanmar (Burma)"
"914","mm","08",21.1619047571429,96.0428571428571,1852521,"mandalay","Myanmar (Burma)"
"915","mm","09",17.30333334,96.39333332,231765,"kanbe","Myanmar (Burma)"
"916","mm","10",21.9976190571429,95.7285714285714,581883,"monywa","Myanmar (Burma)"
"917","mm","11",21.8583333,97.39166665,291169,"taunggyi","Myanmar (Burma)"
"918","mm","12",13.2583333,98.4,310115,"mergui","Myanmar (Burma)"
"919","mm","13",16.2551852,97.6236574166667,804194,"mawlamyine","Myanmar (Burma)"
"920","mm","15",20.3428571428571,95.0523809571429,610726,"pakokku","Myanmar (Burma)"
"921","mm","16",18.1357142714286,95.9880952285714,706629,"bago","Myanmar (Burma)"
"922","mm","17",16.80416665,96.376319475,4640048,"rangoon","Myanmar (Burma)"
"923","mn","08",45.75,106.2666667,15433,"mandalgovi","Mongolia"
"924","mn","11",46.9666667,110.03333335,87110,"darhan","Mongolia"
"925","mn","13",49.6452778,100.1544444,27694,"moron","Mongolia"
"926","mn","15",44.6666667,102.1666667,27929,"hovd","Mongolia"
"927","mn","16",50.2313889,106.2077778,24238,"suhbaatar","Mongolia"
"928","mn","17",46.7,113.2833333,15808,"baruun-urt","Mongolia"
"929","mn","19",49.9666667,92.0333333,28091,"ulaangom","Mongolia"
"930","mn","20",47.9166667,106.9166667,844786,"ulaanbaatar","Mongolia"
"931","mn","21",48.8105556,103.5316667,17351,"bulgan","Mongolia"
"932","mn","25",49.0333333,104.0833333,79649,"erdenet","Mongolia"
"933","mq","00",14.6372549,-60.9872549,314018,"fort-de-france","Martinique"
"934","mr","04",15.5166667,-12.85,5100,"maghama","Mauritania"
"935","mr","05",16.3333333,-13.95,11507,"bababe","Mauritania"
"936","mr","06",18.0863889,-15.9752778,709835,"nouakchott","Mauritania"
"937","mr","07",20.5166667,-13.05,30501,"atar","Mauritania"
"938","mr","08",20.9,-17.0666667,80181,"nouadhibou","Mauritania"
"939","mt","00",35.9135202,14.4328383818182,337650,"birkirkara","Malta"
"940","mu","12",-20.29591667,57.39258334,38680,"bambous","Mauritius"
"941","mu","13",-20.2258040947368,57.7083187210526,104442,"bel air","Mauritius"
"942","mu","14",-20.3746367692308,57.6588675153846,78266,"mahebourg","Mauritius"
"943","mu","15",-20.2358974307692,57.5730982769231,75167,"saint pierre","Mauritius"
"944","mu","16",-20.1084490833333,57.55247685,98633,"triolet","Mauritius"
"945","mu","17",-20.3038888666667,57.5168518333333,169707,"curepipe","Mauritius"
"946","mu","18",-20.1619444,57.4988889,155226,"port louis","Mauritius"
"947","mu","19",-20.05812499375,57.63755208125,100856,"goodlands","Mauritius"
"948","mu","20",-20.4818055625,57.521111125,56855,"chemin grenier","Mauritius"
"949","mv","01",-0.6,73.0833333,9927,"hithadhoo","Maldives"
"950","mv","26",4.23888889333333,73.1955555466667,33480,"kulhudhuffushi","Maldives"
"951","mv","40",3.975,73.23333335,87126,"male","Maldives"
"952","mw","08",-9.9333333,33.9333333,34211,"karonga","Malawi"
"953","mw","09",-13.0333333,33.4833333,42565,"kasungu","Malawi"
"954","mw","11",-13.9833333,33.7833333,646738,"lilongwe","Malawi"
"955","mw","12",-14.275,35.0916667,51918,"mangochi","Malawi"
"956","mw","21",-10.80833335,33.9916667,26283,"rumphi","Malawi"
"957","mw","22",-13.8833333,34.475,34402,"salima","Malawi"
"958","mw","23",-15.3833333,35.3333333,80932,"zomba","Malawi"
"959","mw","24",-15.7833333,35,584870,"blantyre","Malawi"
"960","mw","26",-15.025,35.08333335,41383,"liwonde","Malawi"
"961","mw","29",-16.025,35.4,28470,"mulanje","Malawi"
"962","mx","02",31.5381480833333,-115.506956041667,2544701,"tijuana","Mexico"
"963","mx","07",26.8511493793103,-101.708046103448,2127564,"saltillo","Mexico"
"964","mx","09",19.434167,-99.138611,8720916,"mexico","Mexico"
"965","mx","11",20.5839242063492,-101.123205460317,3007945,"leon","Mexico"
"966","mx","14",20.475277825,-103.441944433333,5318723,"guadalajara","Mexico"
"967","mx","15",19.5016764911243,-99.4088674970414,12234533,"ecatepec","Mexico"
"968","mx","16",19.5610665849057,-101.733846962264,2433601,"morelia","Mexico"
"969","mx","19",25.6558781612903,-100.06117383871,3814597,"monterrey","Mexico"
"970","mx","21",19.1122242794118,-97.8999080955882,3143525,"puebla","Mexico"
"971","mx","30",19.3986216835443,-96.621237721519,3677753,"veracruz","Mexico"
"972","my","01",1.90419708695652,103.293389869565,2180764,"johor bahru","Malaysia"
"973","my","02",5.92217475,100.367784625,793721,"sungai petani","Malaysia"
"974","my","05",2.65296,102.00202,546605,"seremban","Malaysia"
"975","my","06",3.708625,102.457725,638498,"kuantan","Malaysia"
"976","my","07",4.457302625,100.963614,1353944,"ipoh","Malaysia"
"977","my","09",5.38471411111111,100.393234555556,621329,"bukit mertajam","Malaysia"
"978","my","11",2.777908,112.654049142857,1217966,"kuching","Malaysia"
"979","my","12",3.16727889473684,101.483045631579,2466224,"klang","Malaysia"
"980","my","14",3.166667,101.7,1453978,"kuala lumpur","Malaysia"
"981","my","16",5.60755484615385,116.837686,1595934,"kota kinabalu","Malaysia"
"982","mz","01",-13.04319445,39.75375,181016,"pemba","Mozambique"
"983","mz","02",-24.8021111,33.42794446,298923,"xai-xai","Mozambique"
"984","mz","03",-23.8623611,35.36527775,193771,"maxixe","Mozambique"
"985","mz","04",-25.96375,32.5240278,1735520,"maputo","Mozambique"
"986","mz","05",-19.72652775,34.79097225,609354,"beira","Mozambique"
"987","mz","06",-15.232291675,40.1454861,742318,"nampula","Mozambique"
"988","mz","07",-14.0579167,35.8888889,183107,"lichinga","Mozambique"
"989","mz","08",-16.1563889,33.5866667,129316,"tete","Mozambique"
"990","mz","09",-17.35944445,37.57263885,257948,"quelimane","Mozambique"
"991","mz","10",-19.02541665,33.17944445,282480,"chimoio","Mozambique"
"992","na","21",-22.57,17.0836111,268129,"windhoek","Namibia"
"993","na","28",-17.5,24.2666667,25034,"katima mulilo","Namibia"
"994","na","29",-22.2363541625,15.223576375,120812,"walvis bay","Namibia"
"995","na","30",-24.22916665,17.7875,40519,"rehoboth","Namibia"
"996","na","31",-27.4552314833333,17.3932407166667,62398,"keetmanshoop","Namibia"
"997","na","32",-19.5166667,14.9888889,23437,"khorixas","Namibia"
"998","na","34",-17.9333333,19.7666667,58177,"rundu","Namibia"
"999","na","35",-22.45,18.9666667,16323,"gobabis","Namibia"
"1000","na","37",-17.8277777666667,15.8,52415,"oshakati","Namibia"
"1001","na","39",-20.44666666,17.29,76029,"grootfontein","Namibia"
"1002","nc","00",-21.3660919551724,165.743103444828,228006,"noumea","New Caledonia"
"1003","ne","01",18.1310185333333,9.42601853333333,174261,"agadez","Niger"
"1004","ne","02",13.2666667,12.3177778,38651,"diffa","Niger"
"1005","ne","03",12.8594444333333,3.55675926666667,114579,"dosso","Niger"
"1006","ne","04",13.7284920857143,7.35646824285714,284227,"maradi","Niger"
"1007","ne","05",13.6666667,1.7833333,774245,"niamey","Niger"
"1008","ne","06",14.6765740666667,5.76300926666667,151575,"tahoua","Niger"
"1009","ne","07",13.83572222,9.10666668,257552,"zinder","Niger"
"1010","ne","08",13.5166667,2.1166667,774245,"niamey","Niger"
"1011","ne","09",14.0052778,1.88801587142857,106594,"ayorou","Niger"
"1012","ng","05",6.550624,3.62927966666667,9187320,"lagos","Nigeria"
"1013","ng","23",10.2411548,8.0838812,2807272,"kaduna","Nigeria"
"1014","ng","25",6.053353,6.92237322222222,1463654,"onitsha","Nigeria"
"1015","ng","29",11.994354,8.513807,3626204,"kano","Nigeria"
"1016","ng","32",7.85244704761905,3.96652114285714,8142230,"ibadan","Nigeria"
"1017","ng","37",6.71276725,6.090399,1356279,"benin","Nigeria"
"1018","ng","45",5.5210498,7.6323846,1442587,"aba","Nigeria"
"1019","ng","48",7.23727425,5.361746625,1451028,"akure","Nigeria"
"1020","ng","50",4.6945882,7.0589792,1611443,"port harcourt","Nigeria"
"1021","ng","54",7.83556961538462,5.18262107692308,1559507,"ise","Nigeria"
"1022","ni","02",11.84,-86.21333334,100757,"diriamba","Nicaragua"
"1023","ni","03",12.7027777833333,-87.1027777833333,252252,"chinandega","Nicaragua"
"1024","ni","05",13.21666665,-86.375,101754,"esteli","Nicaragua"
"1025","ni","06",11.85,-86.0166666666667,120596,"granada","Nicaragua"
"1026","ni","08",12.5208333333333,-86.6814814833333,229514,"leon","Nicaragua"
"1027","ni","10",12.20144446,-86.28494444,1279704,"managua","Nicaragua"
"1028","ni","11",11.9540079285714,-86.1385714285714,187669,"masaya","Nicaragua"
"1029","ni","12",12.853,-85.7648889,135632,"matagalpa","Nicaragua"
"1030","ni","13",13.68333335,-86.1208333,91538,"ocotal","Nicaragua"
"1031","ni","18",12.2,-84.00666666,114661,"bluefields","Nicaragua"
"1032","nl","01",52.826413,6.58471383333333,329564,"emmen","Netherlands"
"1033","nl","03",52.0526265102041,5.96366602040816,1726920,"nijmegen","Netherlands"
"1034","nl","04",53.1991709333333,6.72673546666667,444318,"groningen","Netherlands"
"1035","nl","05",51.1169483125,5.90025371875,910549,"maastricht","Netherlands"
"1036","nl","06",51.5540629607843,5.22651541176471,1985309,"eindhoven","Netherlands"
"1037","nl","07",52.4775924210526,4.86473505263158,2321701,"amsterdam","Netherlands"
"1038","nl","09",52.0860430476191,5.21543057142857,973689,"utrecht","Netherlands"
"1039","nl","11",51.995092,4.5296930877193,2999203,"rotterdam","Netherlands"
"1040","nl","15",52.4033319130435,6.55462565217391,1044391,"enschede","Netherlands"
"1041","nl","16",52.4839886,5.5117942,340211,"almere","Netherlands"
"1042","no","01",59.9657238787879,11.0656313333333,99468,"jessheim","Norway"
"1043","no","04",60.0383704333333,9.78919446666667,158652,"drammen","Norway"
"1044","no","07",60.2089965692308,5.57909826153846,329774,"bergen","Norway"
"1045","no","08",62.6318518,6.95429628888889,89038,"molde","Norway"
"1046","no","09",67.4251824029851,14.607205641791,153881,"bodo","Norway"
"1047","no","12",59.916667,10.75,808690,"oslo","Norway"
"1048","no","14",58.9157155151515,5.82999993939394,235671,"stavanger","Norway"
"1049","no","16",63.3661616060606,9.96868684848485,181575,"trondheim","Norway"
"1050","no","18",69.2497132258064,18.4970340645161,94887,"tromso","Norway"
"1051","no","19",58.1850876842105,7.32017536842105,107605,"kristiansand","Norway"
"1052","np","00",27.50809524,84.74571428,2926805,"kathmandu","Nepal"
"1053","nu","00",-19.0055555444444,-169.866666666667,1478,"alofi","Niue"
"1054","nz","E7",-38.1775252545455,174.657424218182,934621,"auckland","New Zealand"
"1055","nz","E9",-43.57291675,172.0718750625,376679,"christchurch","New Zealand"
"1056","nz","F1",-38.5907747894737,176.759020526316,169768,"tauranga","New Zealand"
"1057","nz","F2",-39.9128502608696,173.89776573913,146060,"hastings","New Zealand"
"1058","nz","F5",-41.3904761428571,172.633333428571,69550,"nelson","New Zealand"
"1059","nz","F7",-45.2949691111111,170.187345666667,124083,"dunedin","New Zealand"
"1060","nz","F8",-45.827381,168.672619071429,57854,"invercargill","New Zealand"
"1061","nz","F9",-39.7010415833333,173.833333166667,66128,"new plymouth","New Zealand"
"1062","nz","G1",-37.4777776666667,175.061111,161371,"hamilton","New Zealand"
"1063","nz","G2",-41.11777775,174.40370835,465726,"wellington","New Zealand"
"1064","om","02",22.9333333,57.5333333,86619,"nizwa","Oman"
"1065","om","04",22.62847225,59.03791665,98808,"sur","Oman"
"1066","om","06",23.4888889,58.6864814666667,182661,"ruwi","Oman"
"1067","om","08",17.0175,54.0827778,178469,"salalah","Oman"
"1068","pa","01",9.3111111,-82.4000000111111,46233,"changuinola","Panama"
"1069","pa","02",8.48919752777778,-82.5003086444444,235837,"david","Panama"
"1070","pa","03",8.44722223,-80.4183333333333,97620,"aguadulce","Panama"
"1071","pa","04",9.30760100909091,-79.7822348409091,166941,"colon","Panama"
"1072","pa","05",8.36506171111111,-78.0187963111111,10608,"la palma","Panama"
"1073","pa","06",7.9812500125,-80.5895833375,57966,"chitre","Panama"
"1074","pa","07",7.74687499375,-80.3281249875,33126,"las tablas","Panama"
"1075","pa","08",8.91695931785714,-79.5819444410714,1331609,"panama","Panama"
"1076","pa","09",9.26385802222222,-78.2770987555556,11130,"ustupo","Panama"
"1077","pa","10",8.118000005,-81.07254166,80334,"santiago","Panama"
"1078","pe","02",-9.25151514545455,-77.8545454545455,498166,"chimbote","Peru"
"1079","pe","04",-16.2581313090909,-72.2476767727273,951084,"arequipa","Peru"
"1080","pe","11",-14.1811965769231,-75.6374786461539,574796,"ica","Peru"
"1081","pe","12",-11.6156565681818,-75.4342802954545,641989,"huancayo","Peru"
"1082","pe","13",-7.75900794285714,-78.9975132285714,1113293,"trujillo","Peru"
"1083","pe","14",-6.56856060909091,-79.7765404090909,929854,"chiclayo","Peru"
"1084","pe","15",-11.7093551642857,-77.0305357035714,8296861,"lima","Peru"
"1085","pe","16",-5.06095677777778,-74.1757716,552272,"iquitos","Peru"
"1086","pe","20",-4.95755144074074,-80.6378292185185,1082706,"piura","Peru"
"1087","pe","21",-15.4235879666667,-70.051550925,454103,"juliaca","Peru"
"1088","pf","00",-18.4387293106383,-149.449343970213,217069,"faaa","French Polynesia"
"1089","pg","04",-8.825,147.9833333,34398,"popondetta","Papua New Guinea"
"1090","pg","05",-6.04444443333333,143.527777766667,43499,"mendi","Papua New Guinea"
"1091","pg","06",-7.95,142.275,32602,"daru","Papua New Guinea"
"1092","pg","07",-6.379166675,155.60416665,47543,"arawa","Papua New Guinea"
"1093","pg","09",-6.1833333,145.625,27011,"goroka","Papua New Guinea"
"1094","pg","10",-4.275,152.225,34419,"kokopo","Papua New Guinea"
"1095","pg","12",-5.2166667,145.8,27420,"madang","Papua New Guinea"
"1096","pg","14",-6.96666665,147.054166675,107978,"lae","Papua New Guinea"
"1097","pg","16",-5.8666667,144.2166667,33622,"mount hagen","Papua New Guinea"
"1098","pg","20",-9.4647222,147.1925,283733,"port moresby","Papua New Guinea"
"1099","ph","13",14.70778156,120.95163886,1361445,"malolos","Philippines"
"1100","ph","20",14.2474985365854,120.877594756098,1265069,"dasmarinas","Philippines"
"1101","ph","21",10.5091673717949,123.763750070513,782349,"minglanilla","Philippines"
"1102","ph","33",14.2362673529412,121.387083411765,942527,"san pedro","Philippines"
"1103","ph","50",15.0484163188406,120.692904231884,1046639,"san fernando","Philippines"
"1104","ph","51",16.003770010582,120.377227201058,1150021,"dagupan","Philippines"
"1105","ph","53",14.5399894736842,121.236605263158,1392203,"cainta","Philippines"
"1106","ph","B7",10.311111,123.891667,758597,"cebu","Philippines"
"1107","ph","C3",7.16118681818182,125.502373727273,1268055,"davao","Philippines"
"1108","ph","D9",14.5854335,121.0077665,10954260,"manila","Philippines"
"1109","pk","01",33.399663,70.6116222,12988,"miram shah","Pakistan"
"1110","pk","02",28.6022303529412,66.8129994411765,1780736,"quetta","Pakistan"
"1111","pk","03",33.7332959142857,71.7446902571429,3245521,"peshawar","Pakistan"
"1112","pk","04",31.407679791411,72.8046691042945,25238560,"lahore","Pakistan"
"1113","pk","05",26.4203496111111,68.5770289351852,17440405,"karachi","Pakistan"
"1114","pk","06",34.37002,73.47082,19748,"muzaffarabad","Pakistan"
"1115","pk","07",36.118836,74.488362,25497,"hunza","Pakistan"
"1116","pk","08",33.69,73.0551,756105,"islamabad","Pakistan"
"1117","pl","72",50.9997993589744,16.3777648461538,1782461,"wroclaw","Poland"
"1118","pl","73",53.0883205416667,18.4429090416667,1156866,"bydgoszcz","Poland"
"1119","pl","74",51.7262813913043,19.5088503478261,811462,"piotrkow trybunalski","Poland"
"1120","pl","75",51.2765037391304,22.7200643478261,954002,"lublin","Poland"
"1121","pl","77",49.9520875172414,19.9153572413793,1476545,"cracow","Poland"
"1122","pl","78",52.2579972391304,21.0524756086957,3097720,"warsaw","Poland"
"1123","pl","82",54.24693225,18.175477125,1373141,"gdansk","Poland"
"1124","pl","83",50.2371344565217,18.8985735652174,3395348,"katowice","Poland"
"1125","pl","86",52.299929775,17.12101925,1658238,"poznan","Poland"
"1126","pl","87",53.6301611111111,15.4280410740741,1053965,"szczecin","Poland"
"1127","pm","00",46.93208335,-56.2823611,7341,"saint-pierre","St. Pierre & Miquelon"
"1128","pt","02",40.7789956956522,-8.55447886956522,401796,"aveiro","Portugal"
"1129","pt","04",41.4856636,-8.39842148571429,390056,"braga","Portugal"
"1130","pt","07",40.209350125,-8.5186523125,210370,"coimbra","Portugal"
"1131","pt","09",37.1393731428571,-8.112776,345070,"faro","Portugal"
"1132","pt","10",32.7383332,-16.815,187962,"funchal","Portugal"
"1133","pt","13",39.661048875,-8.90057441666667,247655,"leiria","Portugal"
"1134","pt","14",38.86430109375,-9.1960566875,1770181,"lisbon","Portugal"
"1135","pt","17",41.2129585443038,-8.49779173417721,1281869,"porto","Portugal"
"1136","pt","18",39.28958468,-8.61111504,247511,"santarem","Portugal"
"1137","pt","19",38.517621862069,-8.99186689655172,672750,"setubal","Portugal"
"1138","pw","00",7.38696968181818,134.493964645455,15195,"koror","Palau"
"1139","py","01",-25.5740741111111,-55.0185186666667,87970,"presidente franco","Paraguay"
"1140","py","02",-22.6555556666667,-55.888889,82201,"pedro juan caballero","Paraguay"
"1141","py","04",-25.2651515454545,-56.2303030909091,133679,"caaguazu","Paraguay"
"1142","py","06",-25.3640351052632,-57.5175438947368,1908801,"asuncion","Paraguay"
"1143","py","07",-22.9297224,-57.401222,61695,"concepcion","Paraguay"
"1144","py","08",-25.2692982105263,-57.0385966315789,84079,"caacupe","Paraguay"
"1145","py","10",-25.7972221666667,-56.43472225,57010,"villarrica","Paraguay"
"1146","py","11",-26.9888888518519,-55.7660493703704,141526,"encarnacion","Paraguay"
"1147","py","15",-25.8595238571429,-57.0607142857143,50501,"paraguari","Paraguay"
"1148","py","17",-24.4916665714286,-56.5619046428571,49917,"san estanislao","Paraguay"
"1149","qa","01",25.286667,51.533333,344939,"doha","Qatar"
"1150","qa","04",25.683889,51.505833,18923,"khor","Qatar"
"1151","qa","06",24.98125,50.823611,3438,"umm bab","Qatar"
"1152","re","00",-21.086666675,55.511666675,746555,"saint-denis","Réunion"
"1153","ro","10",44.5705245555556,26.1089505555556,1968460,"bucharest","Romania"
"1154","ro","13",46.8181033965517,23.7264368103448,626881,"cluj-napoca","Romania"
"1155","ro","14",44.3225490196078,28.4042484117647,678361,"constanta","Romania"
"1156","ro","23",47.1831787169811,27.2694601509434,887787,"iasi","Romania"
"1157","ro","26",44.4883173365385,23.4791920576923,854464,"drobeta-turnu severin","Romania"
"1158","ro","27",46.5661458541667,24.5293403020833,604823,"targu-mures","Romania"
"1159","ro","34",47.6603174880952,26.029761952381,626961,"suceava","Romania"
"1160","ro","36",45.7724402405063,21.2547081518987,693229,"timisoara","Romania"
"1161","ro","38",46.3665467553957,27.4535711294964,896218,"vaslui","Romania"
"1162","ro","42",44.6101316888889,25.710435162963,1353295,"giurgiu","Romania"
"1163","rs","00",44.5132643333333,20.4699090909091,1843251,"nis","Serbia"
"1164","rs","02",44.4033874415584,20.5856457532468,3806982,"belgrade","Serbia"
"1165","rs","12",44.756667,21.513611,5752,"veliko gradiste","Serbia"
"1166","ru","08",54.4468974639175,56.0714796597938,2812629,"ufa","Russia"
"1167","ru","13",54.8625741153846,60.4100394615385,2988822,"chelyabinsk","Russia"
"1168","ru","38",45.241981135514,39.3876587383178,4096175,"krasnodar","Russia"
"1169","ru","47",55.7330349492386,37.8201947766497,4550481,"podolsk","Russia"
"1170","ru","48",55.7950416666667,37.5542911666667,10793803,"moscow","Russia"
"1171","ru","51",56.15809875,44.1400017592593,2618133,"nizhniy novgorod","Russia"
"1172","ru","61",47.612505146789,40.5884653853211,3411522,"rostov-na-donu","Russia"
"1173","ru","65",53.3558237,50.3203336333333,2575790,"samara","Russia"
"1174","ru","66",59.9314672068965,30.1563814827586,4613239,"saint petersburg","Russia"
"1175","ru","71",57.6776230909091,60.8025353571429,3824531,"yekaterinburg","Russia"
"1176","rw","01",-2.59,29.72805555,146388,"butare","Rwanda"
"1177","rw","02",-1.5775,30.0625,70586,"byumba","Rwanda"
"1178","rw","03",-2.4833333,28.8966667,63883,"cyangugu","Rwanda"
"1179","rw","04",-2.41347225,29.65305555,90511,"nyanza","Rwanda"
"1180","rw","05",-1.7027778,29.2563889,83718,"gisenyi","Rwanda"
"1181","rw","06",-2.0744444,29.7566667,87613,"gitarama","Rwanda"
"1182","rw","07",-2.0584722,30.4898611,96311,"rwamagana","Rwanda"
"1183","rw","08",-2.0555556,29.3497222,48024,"kibuye","Rwanda"
"1184","rw","09",-1.9536111,30.0605556,745526,"kigali","Rwanda"
"1185","rw","10",-1.4833333,29.6166667,86737,"ruhengeri","Rwanda"
"1186","sa","06",26.41137525,49.926808,194916,"sayhat","Saudi Arabia"
"1187","sa","08",26.325986,43.974966,341981,"buraydah","Saudi Arabia"
"1188","sa","10",24.653664,46.71522,3469290,"riyadh","Saudi Arabia"
"1189","sa","11",18.216389,42.505278,142255,"abha","Saudi Arabia"
"1190","sa","14",21.4718055,39.522639,3745387,"jiddah","Saudi Arabia"
"1191","sa","17",17.1684433333333,43.0921596666667,254981,"najran","Saudi Arabia"
"1192","sa","19",26.710534,36.9200035,386937,"tabuk","Saudi Arabia"
"1193","sa","20",30.821129,39.4350745,125936,"sakakah","Saudi Arabia"
"1194","sb","00",-8.98333333333333,160.755555533333,9383,"gizo","Solomon Islands"
"1195","sb","08",-9.4375,160.679166675,63242,"honiara","Solomon Islands"
"1196","sc","08",-4.6166667,55.45,26361,"victoria","Seychelles"
"1197","sd","27",13.5537037111111,32.9537037,580831,"kusti","Sudan"
"1198","sd","29",15.61208335,32.48569445,4785108,"umm durman","Sudan"
"1199","sd","34",12.0616203666667,30.0410648166667,152631,"umm ruwabah","Sudan"
"1200","sd","35",9.5369444,31.6561111,160893,"malakal","Sudan"
"1201","sd","38",14.7801389,33.33652775,343100,"wad madani","Sudan"
"1202","sd","41",13.15,32.7333333,135389,"rabak","Sudan"
"1203","sd","44",4.85,31.6166667,163455,"juba","Sudan"
"1204","sd","46",7.7,28,127400,"waw","Sudan"
"1205","sd","50",11.0166667,29.7166667,87677,"kaduqli","Sudan"
"1206","sd","52",15.4558333,36.3988889,401514,"kassala","Sudan"
"1207","se","03",61.1333334,16.8925002,129534,"gavle","Sweden"
"1208","se","08",57.6199998,14.5899998,142939,"jonkoping","Sweden"
"1209","se","15",59.2499996666667,14.9555556666667,138278,"orebro","Sweden"
"1210","se","16",58.5200002,15.5533332,232899,"linkoping","Sweden"
"1211","se","18",59.0333334,16.7666666,130951,"eskilstuna","Sweden"
"1212","se","21",59.6888886666667,17.4,160962,"uppsala","Sweden"
"1213","se","25",59.76250025,16.23333325,146258,"vasteras","Sweden"
"1214","se","26",59.406963,18.0319814666667,1805109,"stockholm","Sweden"
"1215","se","27",55.8416666666667,13.2138889166667,614660,"malmo","Sweden"
"1216","se","28",58.0531251875,12.6802084375,872700,"goteborg","Sweden"
"1217","sg","00",1.2930556,103.8558333,3547809,"singapore","Singapore"
"1218","sh","00",-20.3055555333333,-10.8111111333333,1446,"jamestown","St. Helena"
"1219","si","04",45.9469351783333,14.2737731466667,609915,"ljubljana","Slovenia"
"1220","si","09",46.3878723361702,15.4747281319149,337553,"maribor","Slovenia"
"1221","sj","00",78.4055555666667,13.9388888666667,1848,"longyearbyen","Svalbard & Jan Mayen"
"1222","sk","01",48.644166655,19.343333335,406205,"banska bystrica","Slovakia"
"1223","sk","02",48.3166666545455,17.2363636545455,551160,"bratislava","Slovakia"
"1224","sk","03",48.7440476214286,21.4619047571429,424411,"kosice","Slovakia"
"1225","sk","04",48.0888888933333,18.4088888866667,299640,"nitra","Slovakia"
"1226","sk","05",49.1107843176471,21.0029411823529,352188,"presov","Slovakia"
"1227","sk","06",48.8305555583333,18.0819444416667,180173,"trencin","Slovakia"
"1228","sk","07",48.4541666625,17.6458333375,153714,"trnava","Slovakia"
"1229","sk","08",49.2311111133333,18.9377777733333,362859,"zilina","Slovakia"
"1230","sl","01",8.1658,-10.954777772,332297,"koidu","Sierra Leone"
"1231","sl","02",8.93225695,-12.34800925,225898,"makeni","Sierra Leone"
"1232","sl","03",7.71285493888889,-11.8569907333333,169178,"bo","Sierra Leone"
"1233","sl","04",8.409999975,-13.1836111,1232279,"freetown","Sierra Leone"
"1234","sm","01",43.95,12.4166667,1530,"acquaviva","San Marino"
"1235","sm","02",43.9166667,12.4166667,952,"chiesanuova","San Marino"
"1236","sm","07",43.9333333,12.45,4598,"san marino","San Marino"
"1237","sm","09",43.95,12.5,9258,"serravalle","San Marino"
"1238","sn","01",14.6708333,-17.4380556,2702820,"dakar","Senegal"
"1239","sn","03",14.7222222333333,-16.2111111333333,237909,"diourbel","Senegal"
"1240","sn","04",15.99333335,-14.07833334,175034,"richard toll","Senegal"
"1241","sn","07",14.7462698571429,-16.8300396857143,644082,"thies","Senegal"
"1242","sn","09",14.17916665,-16.2791666875,122363,"fatick","Senegal"
"1243","sn","10",14.04333332,-15.69666668,365821,"kaolack","Senegal"
"1244","sn","11",12.82933334,-15.29527778,148168,"kolda","Senegal"
"1245","sn","12",12.6262037,-16.3484259,308416,"ziguinchor","Senegal"
"1246","sn","13",15.6166667,-16.2166667,117333,"louga","Senegal"
"1247","sn","14",16.0188889,-16.4952778,176048,"saint-louis","Senegal"
"1248","so","01",3.95833335,43.575,19969,"xuddur","Somalia"
"1249","so","02",2.0666667,45.3666667,2590180,"mogadishu","Somalia"
"1250","so","03",11.07449998,50.40127778,122023,"bosaso","Somalia"
"1251","so","04",2.4,42.9833333,16149,"dinsor","Somalia"
"1252","so","08",0.8745833,42.67180555,46126,"jilib","Somalia"
"1253","so","09",-0.24847225,42.30125,435189,"kismayo","Somalia"
"1254","so","11",8.18333335,49.15833335,68817,"garowe","Somalia"
"1255","so","13",2.7666667,45.5166667,47086,"jawhar","Somalia"
"1256","so","14",2.20833335,44.9,122823,"afgoye","Somalia"
"1257","so","16",9.98407406666667,44.0887963,758721,"hargeysa","Somalia"
"1258","sr","10",5.0666667,-54.9666667,2072,"brokopondo","Suriname"
"1259","sr","11",5.8611111,-55.0944444333333,15989,"meerzorg","Suriname"
"1260","sr","12",5.8833333,-56.3166667,1800,"totness","Suriname"
"1261","sr","13",5.55833335,-54.225,11483,"moengo","Suriname"
"1262","sr","14",5.85833335,-56.8333333,17639,"nieuw nickerie","Suriname"
"1263","sr","15",5.5833333,-55.1833333,2009,"onverwacht","Suriname"
"1264","sr","16",5.8333333,-55.1666667,220306,"paramaribo","Suriname"
"1265","sr","17",5.8,-55.4666667,3112,"groningen","Suriname"
"1266","sr","19",5.7,-55.2333333,17735,"lelydorp","Suriname"
"1267","sv","01",13.8642857142857,-89.8701587142857,61236,"ahuachapan","El Salvador"
"1268","sv","04",13.81211112,-88.97327778,97301,"cojutepeque","El Salvador"
"1269","sv","05",13.74952777,-89.3091111,248073,"nueva san salvador","El Salvador"
"1270","sv","06",13.52555556,-89.00044444,63704,"zacatecoluca","El Salvador"
"1271","sv","07",13.5007986,-87.8966319375,59113,"la union","El Salvador"
"1272","sv","10",13.7517438277778,-89.1726234666667,1472904,"san salvador","El Salvador"
"1273","sv","11",14.0475,-89.53180555,245176,"santa ana","El Salvador"
"1274","sv","12",13.6777777666667,-88.8055555333333,50446,"san vicente","El Salvador"
"1275","sv","13",13.7336805625,-89.707361125,158308,"sonsonate","El Salvador"
"1276","sv","14",13.4003240666667,-88.4720370416667,136095,"usulutan","El Salvador"
"1277","sy","02",35.35,35.9166667,52309,"jablah","Syria"
"1278","sy","06",32.8833333,36.05,50821,"nawa","Syria"
"1279","sy","07",34.45,40.9186111,62491,"abu kamal","Syria"
"1280","sy","08",33.6611111,36.3833333333333,164904,"duma","Syria"
"1281","sy","09",36.36472225,37.5575,2245298,"aleppo","Syria"
"1282","sy","10",35.03333335,36.7,124319,"salamiyah","Syria"
"1283","sy","12",35.9297222,36.6316667,110503,"idlib","Syria"
"1284","sy","13",33.4777777666667,36.3,1818491,"damascus","Syria"
"1285","sy","14",34.9611111,35.9833333333333,167193,"tartus","Syria"
"1286","sz","01",-26.27000002,31.29999998,101423,"mbabane","Swaziland"
"1287","sz","02",-26.7666666666667,31.9444444333333,17677,"big bend","Swaziland"
"1288","sz","03",-26.51666666,31.23666668,121621,"manzini","Swaziland"
"1289","sz","04",-27.10000002,31.50333334,21866,"nhlangano","Swaziland"
"1290","tc","00",21.475,-71.3333333,7269,"cockburn town","Turks & Caicos Islands"
"1291","td","01",13.25833335,19.0083333,43345,"ati","Chad"
"1292","td","04",11.9873611166667,16.3303703833333,91710,"massaguet","Chad"
"1293","td","05",11.7415740666667,18.2819444666667,52042,"mongo","Chad"
"1294","td","06",13.8809722,15.9011111,33221,"mao","Chad"
"1295","td","08",8.70555556666667,15.9444444333333,158329,"moundou","Chad"
"1296","td","09",8.19444446666667,16.5666666666667,40319,"doba","Chad"
"1297","td","10",10.119791675,15.25243055,88056,"pala","Chad"
"1298","td","11",9.04666668,18.00333334,176284,"sarh","Chad"
"1299","td","12",13.6416667,21.50833335,86116,"abeche","Chad"
"1300","td","14",9.35,16.0833333333333,76581,"kelo","Chad"
"1301","tf","00",-49.35,70.2166667,45,"port-aux-francais","French Southern Territories"
"1302","tg","01",7.525,0.75,33113,"badou","Togo"
"1303","tg","02",6.2333333,1.6,47174,"aneho","Togo"
"1304","tg","05",9.25,0.7833333,55901,"bassar","Togo"
"1305","tg","08",6.9,0.6333333,110541,"kpalime","Togo"
"1306","tg","13",6.95,1.1666667,24383,"notse","Togo"
"1307","tg","18",6.4261111,1.2133333,55302,"tsevie","Togo"
"1308","tg","22",8.9833333,1.1333333,108373,"sokode","Togo"
"1309","tg","23",9.757361125,1.165972225,133309,"kara","Togo"
"1310","tg","25",7.5333333,1.1333333,92976,"atakpame","Togo"
"1311","tg","26",10.6115278,0.33791665,66106,"mango","Togo"
"1312","th","22",16.3793298333333,102.699582166667,273327,"khon kaen","Thailand"
"1313","th","27",14.948951,102.145507,442834,"nakhon ratchasima","Thailand"
"1314","th","38",13.84629525,100.48947775,651069,"nonthaburi","Thailand"
"1315","th","39",14.007882,100.6649925,330544,"thanyaburi","Thailand"
"1316","th","40",13.753979,100.501444,5104475,"bangkok","Thailand"
"1317","th","42",13.60706,100.6990365,619783,"samut prakan","Thailand"
"1318","th","46",13.111515125,100.982837375,667211,"chon buri","Thailand"
"1319","th","52",13.6458591666667,99.836732,254242,"ratchaburi","Thailand"
"1320","th","68",7.15592275,100.45413525,344611,"hat yai","Thailand"
"1321","th","76",17.4633845,102.820342166667,366062,"udon thani","Thailand"
"1322","tj","01",37.5602778,68.4525,8474,"garavuti","Tajikistan"
"1323","tj","02",38.034211112,69.11448888,933825,"dushanbe","Tajikistan"
"1324","tj","03",40.0127037033333,69.6202500066667,545347,"khujand","Tajikistan"
"1325","tm","01",37.93405556,58.43166666,906448,"asgabat","Turkmenistan"
"1326","tm","02",39.3203703666667,54.8241666666667,133232,"balkanabat","Turkmenistan"
"1327","tm","03",41.799999975,60.10833335,255871,"dasoguz","Turkmenistan"
"1328","tm","04",38.861,63.8348889,318093,"turkmenabat","Turkmenistan"
"1329","tm","05",37.5,61.9666667,13199,"murgab","Turkmenistan"
"1330","tn","06",36.5975866,8.8610146,100316,"jundubah","Tunisia"
"1331","tn","16",35.6243461428571,10.8441878571429,135314,"jammal","Tunisia"
"1332","tn","18",37.0952757142857,9.76966428571429,157631,"manzil bu ruqaybah","Tunisia"
"1333","tn","19",36.64154325,10.704006625,217334,"nabul","Tunisia"
"1334","tn","23",35.8478938,10.5838806,264025,"susah","Tunisia"
"1335","tn","28",33.3209055,11.165902,92698,"jarjis","Tunisia"
"1336","tn","29",33.881457,10.098196,111070,"qabis","Tunisia"
"1337","tn","30",34.425,8.784167,81236,"qafsah","Tunisia"
"1338","tn","32",34.8877775,10.834184,283642,"safaqis","Tunisia"
"1339","tn","36",36.8053328571429,10.2403615714286,1108361,"tunis","Tunisia"
"1340","to","01",-19.8,-174.35,1737,"pangai","Tonga"
"1341","to","02",-21.2,-175.2,2976,"vaini","Tonga"
"1342","to","03",-17.3,-173.86666665,5135,"neiafu","Tonga"
"1343","tr","07",36.7051508,31.1048542,1035032,"antalya","Turkey"
"1344","tr","16",40.2659753636364,29.1383729090909,1904044,"bursa","Turkey"
"1345","tr","32",36.5588775,34.0068546666667,1097685,"mersin","Turkey"
"1346","tr","34",41.1056726818182,28.5698983636364,10326273,"istanbul","Turkey"
"1347","tr","35",38.4276376,27.1924862,2898074,"izmir","Turkey"
"1348","tr","63",37.254244,38.8025901666667,891999,"urfa","Turkey"
"1349","tr","68",39.75404875,33.16158975,3651324,"ankara","Turkey"
"1350","tr","71",37.9294972857143,32.4819162857143,1220987,"konya","Turkey"
"1351","tr","81",37.18665425,35.65482125,1466130,"adana","Turkey"
"1352","tr","83",37.0313886666667,37.2690743333333,1189695,"gaziantep","Turkey"
"1353","tt","01",10.6333333,-61.2833333,34996,"arima","Trinidad & Tobago"
"1354","tt","02",10.4388889,-61.3888889,80650,"chaguanas","Trinidad & Tobago"
"1355","tt","04",10.3,-61.1833333,2808,"rio claro","Trinidad & Tobago"
"1356","tt","06",10.6166667,-61.3333333,20310,"sangre grande","Trinidad & Tobago"
"1357","tt","08",10.6333333,-61.3611111,44879,"tunapuna","Trinidad & Tobago"
"1358","tt","09",10.1611111,-61.55,32385,"point fortin","Trinidad & Tobago"
"1359","tt","10",10.29166665,-61.45833335,83079,"san fernando","Trinidad & Tobago"
"1360","tt","11",11.1833333,-60.7333333,4595,"scarborough","Trinidad & Tobago"
"1361","tt","12",10.23333335,-61.41666665,14127,"princes town","Trinidad & Tobago"
"1362","tv","00",-6.675,177.066666675,2013,"lolua","Tuvalu"
"1363","tw","02",22.6177778,120.3013889,1512832,"kaohsiung","Taiwan"
"1364","tw","03",25.02716668,121.49655556,3953755,"taipei","Taiwan"
"1365","tw","04",24.0347925392405,120.815091417722,10998818,"kaohsiung","Taiwan"
"1366","tz","04",-8.43854165625,35.6260416625,490901,"iringa","Tanzania"
"1367","tz","09",-9.107499995,33.644999995,756388,"mbeya","Tanzania"
"1368","tz","10",-6.80972221666667,37.4736111083333,560689,"morogoro","Tanzania"
"1369","tz","12",-2.636458325,33.239583325,721573,"mwanza","Tanzania"
"1370","tz","15",-3.65396197894737,33.2257748421053,649326,"shinyanga","Tanzania"
"1371","tz","18",-4.98958333125,38.4677083375,490097,"tanga","Tanzania"
"1372","tz","19",-2.01295321052632,31.3489766,446028,"bukoba","Tanzania"
"1373","tz","23",-6.9083333375,39.064583325,2844037,"dar es salaam","Tanzania"
"1374","tz","25",-6.34666666,39.15333334,548963,"zanzibar","Tanzania"
"1375","tz","26",-3.3051282,36.5333333307692,512509,"arusha","Tanzania"
"1376","ua","04",48.1960892758621,34.5293557931034,1015355,"kryvyy rih","Ukraine"
"1377","ua","05",47.9708871282051,37.9902453076923,1292612,"makiyivka","Ukraine"
"1378","ua","11",45.0026719821429,34.477182,733746,"kerch","Ukraine"
"1379","ua","12",50.433333,30.516667,2514227,"kiev","Ukraine"
"1380","ua","13",50.1948794736842,30.4490667894737,756391,"bila tserkva","Ukraine"
"1381","ua","15",49.6618227027027,23.8524361891892,1190817,"lvov","Ukraine"
"1382","ua","17",46.468096,29.6968990566038,1427074,"odesa","Ukraine"
"1383","ua","18",49.7514849,33.68722215,739702,"poltava","Ukraine"
"1384","ua","23",48.8336008,28.613896925,993260,"vinnytsya","Ukraine"
"1385","ua","26",47.3211368918919,35.5125760810811,1075032,"zaporizhzhya","Ukraine"
"1386","ug","30",2.7666667,32.3055556,146832,"gulu","Uganda"
"1387","ug","33",0.5333333,33.18930555,108190,"jinja","Uganda"
"1388","ug","37",0.3463889,32.7426389,1388274,"kampala","Uganda"
"1389","ug","40",0.259629633333333,30.0501851666667,89871,"kasese","Uganda"
"1390","ug","47",2.235,32.9097222,119302,"lira","Uganda"
"1391","ug","52",-0.4061111,30.60388885,103863,"mbarara","Uganda"
"1392","ug","70",0.708333325,32.480555575,88024,"luwero","Uganda"
"1393","ug","71",-0.2129167,31.78347225,82952,"masaka","Uganda"
"1394","ug","77",2.9613889,31.14,119082,"arua","Uganda"
"1395","ug","90",0.39099998,32.89583334,170296,"mukono","Uganda"
"1396","us","AZ",33.3652178686275,-111.96678105098,4838335,"phoenix","United States"
"1397","us","CA",35.6846905299776,-119.546152746309,30890865,"los angeles","United States"
"1398","us","FL",27.5432323227273,-81.494709592803,10571845,"jacksonville","United States"
"1399","us","IL",41.3461935651584,-88.3983121692308,9219107,"chicago","United States"
"1400","us","MA",42.2477947483333,-71.3499938327778,5988064,"boston","United States"
"1401","us","MI",42.7073214285714,-84.0324925598214,4725467,"detroit","United States"
"1402","us","NJ",40.5362296964912,-74.3648391812866,4892285,"newark","United States"
"1403","us","NY",41.5045075086487,-74.4611982021622,12992289,"new york","United States"
"1404","us","OH",40.6293768767568,-82.6174699702703,6273903,"columbus","United States"
"1405","us","TX",31.0168510722689,-97.2420109714286,15469123,"houston","United States"
"1406","uy","01",-30.325,-57.025,59203,"artigas","Uruguay"
"1407","uy","02",-34.6723016,-56.1905158714286,195208,"las piedras","Uruguay"
"1408","uy","03",-32.4666667,-53.8,68238,"melo","Uruguay"
"1409","uy","04",-34.30145835,-57.69222225,67151,"colonia","Uruguay"
"1410","uy","09",-34.85,-54.93333335,94801,"maldonado","Uruguay"
"1411","uy","10",-34.8580556,-56.1708333,1305865,"montevideo","Uruguay"
"1412","uy","11",-32.3213889,-58.0755556,78902,"paysandu","Uruguay"
"1413","uy","13",-30.9,-55.5166667,68020,"rivera","Uruguay"
"1414","uy","15",-31.3833333,-57.9666667,104667,"salto","Uruguay"
